{"summary": {"portfolio_name": "Nuveen", "building_count": 382, "state_count": 24, "total_sqft": 67004708, "fined_count": 96, "active_count": 5, "pending_count": 25, "none_count": 256, "total_penalty": 3313043, "total_procurement": 4885149, "total_dr": 432022, "total_monetization": 5317171, "utility_direct_count": 200, "gas_qualify_count": 103, "electric_qualify_count": 164, "dr_qualify_count": 271, "monetization_count": 330, "at_risk_count": 96, "top5_jurisdictions": [{"market": "Fife, WA", "fine": 847697}, {"market": "Renton, WA", "fine": 505284}, {"market": "Tacoma, WA", "fine": 492944}, {"market": "Kent, WA", "fine": 485687}, {"market": "Lakewood, WA", "fine": 225500}]}, "buildings": [{"id": 1, "address": "18207 Chisholm Trl", "city": "Houston", "state": "TX", "_lat": 29.7601, "_lng": -95.3701, "sqft": 43387, "type": "Warehouse", "coverage": "no current requirement (confirmed)", "status": "none", "penalty": 0, "deadline": "", "proc": 6074, "dr": 0, "mon": 6074, "gas": 0, "elec": 6074, "q_gas": false, "q_elec": true, "q_dr": false, "util_dir": false, "util_min": null, "utility": "CenterPoint Energy Houston Electric LLC", "at_risk": false}, {"id": 2, "address": "2100 E 49th St", "city": "Vernon", "state": "CA", "_lat": 34.0039, "_lng": -118.2296, "sqft": 54000, "type": "Warehouse", "coverage": "active law (data ingested)", "status": "fined", "penalty": 6250, "deadline": "", "proc": 0, "dr": 0, "mon": 0, "gas": 0, "elec": 0, "q_gas": false, "q_elec": false, "q_dr": false, "util_dir": true, "util_min": 3, "utility": "Los Angeles Department of Water and Power; Southern Cal Gas; Southern California Edison", "at_risk": true}, {"id": 3, "address": "921 W Bethel Rd", "city": "Coppell", "state": "TX", "_lat": 32.9546, "_lng": -97.015, "sqft": 130250, "type": "Warehouse", "coverage": "no current requirement (confirmed)", "status": "none", "penalty": 0, "deadline": "", "proc": 18235, "dr": 912, "mon": 19147, "gas": 0, "elec": 18235, "q_gas": false, "q_elec": true, "q_dr": true, "util_dir": false, "util_min": null, "utility": "Denton County Elec Coop, Inc", "at_risk": false}, {"id": 4, "address": "1 Cory Rd", "city": "Morristown", "state": "NJ", "_lat": 40.7968, "_lng": -74.4815, "sqft": 296000, "type": "Warehouse", "coverage": "active law (data ingested)", "status": "fined", "penalty": 3000, "deadline": "2026-07-01", "proc": 59200, "dr": 2072, "mon": 61272, "gas": 17760, "elec": 41440, "q_gas": true, "q_elec": true, "q_dr": true, "util_dir": true, "util_min": 4, "utility": "Jersey Central Power & Light; Public Service Electric and Gas", "at_risk": true}, {"id": 5, "address": "40737 Encyclopedia Cir", "city": "Fremont", "state": "CA", "_lat": 37.5485, "_lng": -121.9886, "sqft": 81572, "type": "Warehouse", "coverage": "active law (data ingested)", "status": "fined", "penalty": 6250, "deadline": "", "proc": 0, "dr": 571, "mon": 571, "gas": 0, "elec": 0, "q_gas": false, "q_elec": false, "q_dr": true, "util_dir": true, "util_min": 3, "utility": "Pacific Gas & Electric", "at_risk": true}, {"id": 6, "address": "1900 Frost Rd", "city": "Bristol", "state": "PA", "_lat": 40.101, "_lng": -74.8521, "sqft": 74000, "type": "Warehouse", "coverage": "no current requirement (confirmed)", "status": "none", "penalty": 0, "deadline": "", "proc": 14800, "dr": 0, "mon": 14800, "gas": 4440, "elec": 10360, "q_gas": true, "q_elec": true, "q_dr": false, "util_dir": true, "util_min": 4, "utility": "PECO", "at_risk": false}, {"id": 7, "address": "255 Madsen Dr", "city": "Bloomingdale", "state": "IL", "_lat": 41.9433, "_lng": -88.0798, "sqft": 51600, "type": "Warehouse", "coverage": "no current requirement (confirmed)", "status": "none", "penalty": 0, "deadline": "", "proc": 10320, "dr": 0, "mon": 10320, "gas": 3096, "elec": 7224, "q_gas": true, "q_elec": true, "q_dr": false, "util_dir": true, "util_min": 4, "utility": "Commonwealth Edison", "at_risk": false}, {"id": 8, "address": "721 Nevada St", "city": "Redlands", "state": "CA", "_lat": 34.0556, "_lng": -117.1825, "sqft": 35264, "type": "Warehouse", "coverage": "no current requirement (confirmed)", "status": "none", "penalty": 0, "deadline": "", "proc": 0, "dr": 0, "mon": 0, "gas": 0, "elec": 0, "q_gas": false, "q_elec": false, "q_dr": false, "util_dir": true, "util_min": 3, "utility": "Southern Cal Gas; Southern California Edison", "at_risk": false}, {"id": 9, "address": "7949 Stromesa Ct", "city": "San Diego", "state": "CA", "_lat": 32.7157, "_lng": -117.1611, "sqft": 107564, "type": "Warehouse", "coverage": "active law (data ingested)", "status": "fined", "penalty": 6250, "deadline": "", "proc": 0, "dr": 753, "mon": 753, "gas": 0, "elec": 0, "q_gas": false, "q_elec": false, "q_dr": true, "util_dir": true, "util_min": 3, "utility": "San Diego Gas & Electric", "at_risk": true}, {"id": 10, "address": "12310 62nd St N", "city": "Largo", "state": "FL", "_lat": 27.9095, "_lng": -82.7873, "sqft": 104300, "type": "Warehouse", "coverage": "no current requirement (confirmed)", "status": "none", "penalty": 0, "deadline": "", "proc": 0, "dr": 730, "mon": 730, "gas": 0, "elec": 0, "q_gas": false, "q_elec": false, "q_dr": true, "util_dir": false, "util_min": null, "utility": "Duke Energy Florida, LLC", "at_risk": false}, {"id": 11, "address": "558 W Airtech Pky", "city": "Plainfield", "state": "IN", "_lat": 39.7042, "_lng": -86.3994, "sqft": 797204, "type": "Warehouse", "coverage": "no current requirement (confirmed)", "status": "none", "penalty": 0, "deadline": "", "proc": 0, "dr": 5580, "mon": 5580, "gas": 0, "elec": 0, "q_gas": false, "q_elec": false, "q_dr": true, "util_dir": false, "util_min": null, "utility": "Duke Energy Indiana, LLC, Hendricks County Rural E M C, Indianapolis Power & Light Co", "at_risk": false}, {"id": 12, "address": "3715 Atlanta Industrial Pky NW", "city": "Atlanta", "state": "GA", "_lat": 33.749, "_lng": -84.388, "sqft": 42960, "type": "Warehouse", "coverage": "active law (data ingested)", "status": "fined", "penalty": 750, "deadline": "2026-12-31", "proc": 2578, "dr": 0, "mon": 2578, "gas": 2578, "elec": 0, "q_gas": true, "q_elec": false, "q_dr": false, "util_dir": true, "util_min": 5, "utility": "Georgia Power", "at_risk": true}, {"id": 13, "address": "4501 Auth Pl", "city": "Marlow Heights", "state": "MD", "_lat": 38.8362, "_lng": -76.9502, "sqft": 113512, "type": "Warehouse", "coverage": "active law (data ingested)", "status": "fined", "penalty": 17027, "deadline": "2025-12-31", "proc": 22703, "dr": 795, "mon": 23498, "gas": 6811, "elec": 15892, "q_gas": true, "q_elec": true, "q_dr": true, "util_dir": true, "util_min": 5, "utility": "Pepco; Washington Gas", "at_risk": true}, {"id": 14, "address": "901-941 Avenue N", "city": "Grand Prairie", "state": "TX", "_lat": 32.7459, "_lng": -97.0342, "sqft": 170000, "type": "Warehouse", "coverage": "no current requirement (confirmed)", "status": "none", "penalty": 0, "deadline": "", "proc": 23800, "dr": 1190, "mon": 24990, "gas": 0, "elec": 23800, "q_gas": false, "q_elec": true, "q_dr": true, "util_dir": false, "util_min": null, "utility": "Oncor Electric Delivery [Energy Future Holdings Corp]", "at_risk": false}, {"id": 15, "address": "3211-3227 E Avenue E", "city": "Arlington", "state": "TX", "_lat": 32.7357, "_lng": -97.1081, "sqft": 56500, "type": "Warehouse", "coverage": "no current requirement (confirmed)", "status": "none", "penalty": 0, "deadline": "", "proc": 7910, "dr": 0, "mon": 7910, "gas": 0, "elec": 7910, "q_gas": false, "q_elec": true, "q_dr": false, "util_dir": false, "util_min": null, "utility": "Oncor Electric Delivery [Energy Future Holdings Corp]", "at_risk": false}, {"id": 16, "address": "1207 Bilter Rd", "city": "Aurora", "state": "IL", "_lat": 41.7606, "_lng": -88.3201, "sqft": 124897, "type": "Warehouse", "coverage": "no current requirement (confirmed)", "status": "none", "penalty": 0, "deadline": "", "proc": 24980, "dr": 874, "mon": 25854, "gas": 7494, "elec": 17486, "q_gas": true, "q_elec": true, "q_dr": true, "util_dir": true, "util_min": 4, "utility": "Commonwealth Edison", "at_risk": false}, {"id": 17, "address": "438 S Callaghan Rd", "city": "San Antonio", "state": "TX", "_lat": 29.4241, "_lng": -98.4936, "sqft": 93600, "type": "Warehouse", "coverage": "no current requirement (confirmed)", "status": "none", "penalty": 0, "deadline": "", "proc": 13104, "dr": 655, "mon": 13759, "gas": 0, "elec": 13104, "q_gas": false, "q_elec": true, "q_dr": true, "util_dir": false, "util_min": null, "utility": "City of San Antonio - (TX)", "at_risk": false}, {"id": 18, "address": "2021 Cedars Rd", "city": "Lawrenceville", "state": "GA", "_lat": 33.9562, "_lng": -83.988, "sqft": 148200, "type": "Warehouse", "coverage": "no current requirement (confirmed)", "status": "none", "penalty": 0, "deadline": "", "proc": 8892, "dr": 1037, "mon": 9929, "gas": 8892, "elec": 0, "q_gas": true, "q_elec": false, "q_dr": true, "util_dir": true, "util_min": 5, "utility": "Georgia Power", "at_risk": false}, {"id": 19, "address": "9210 E Columbus Dr", "city": "Tampa", "state": "FL", "_lat": 27.9506, "_lng": -82.4572, "sqft": 145756, "type": "Warehouse", "coverage": "no current requirement (confirmed)", "status": "none", "penalty": 0, "deadline": "", "proc": 0, "dr": 1020, "mon": 1020, "gas": 0, "elec": 0, "q_gas": false, "q_elec": false, "q_dr": true, "util_dir": false, "util_min": null, "utility": "Tampa Electric Co", "at_risk": false}, {"id": 20, "address": "2102 County Line Rd", "city": "Plant City", "state": "FL", "_lat": 28.0186, "_lng": -82.1131, "sqft": 132041, "type": "Warehouse", "coverage": "no current requirement (confirmed)", "status": "none", "penalty": 0, "deadline": "", "proc": 0, "dr": 924, "mon": 924, "gas": 0, "elec": 0, "q_gas": false, "q_elec": false, "q_dr": true, "util_dir": false, "util_min": null, "utility": "City of Lakeland - (FL), Tampa Electric Co", "at_risk": false}, {"id": 21, "address": "1467 Davril Cir", "city": "Corona", "state": "CA", "_lat": 33.8753, "_lng": -117.5664, "sqft": 54083, "type": "Warehouse", "coverage": "active law (data ingested)", "status": "fined", "penalty": 6250, "deadline": "", "proc": 0, "dr": 0, "mon": 0, "gas": 0, "elec": 0, "q_gas": false, "q_elec": false, "q_dr": false, "util_dir": true, "util_min": 3, "utility": "Southern Cal Gas; Southern California Edison", "at_risk": true}, {"id": 22, "address": "1468 Davril Cir", "city": "Corona", "state": "CA", "_lat": 33.8753, "_lng": -117.5664, "sqft": 38322, "type": "Warehouse", "coverage": "no current requirement (confirmed)", "status": "none", "penalty": 0, "deadline": "", "proc": 0, "dr": 0, "mon": 0, "gas": 0, "elec": 0, "q_gas": false, "q_elec": false, "q_dr": false, "util_dir": true, "util_min": 3, "utility": "Southern Cal Gas; Southern California Edison", "at_risk": false}, {"id": 23, "address": "855 Dunksferry Rd", "city": "Bensalem", "state": "PA", "_lat": 40.1032, "_lng": -74.9513, "sqft": 77880, "type": "Warehouse", "coverage": "no current requirement (confirmed)", "status": "none", "penalty": 0, "deadline": "", "proc": 15576, "dr": 545, "mon": 16121, "gas": 4673, "elec": 10903, "q_gas": true, "q_elec": true, "q_dr": true, "util_dir": true, "util_min": 4, "utility": "PECO", "at_risk": false}, {"id": 24, "address": "18850 Eastex Fwy", "city": "Humble", "state": "TX", "_lat": 29.9988, "_lng": -95.2622, "sqft": 80000, "type": "Warehouse", "coverage": "no current requirement (confirmed)", "status": "none", "penalty": 0, "deadline": "", "proc": 11200, "dr": 560, "mon": 11760, "gas": 0, "elec": 11200, "q_gas": false, "q_elec": true, "q_dr": true, "util_dir": false, "util_min": null, "utility": "Entergy Texas Inc., Mid-South Electric Coop Assn", "at_risk": false}, {"id": 25, "address": "4501 Etiwanda Ave", "city": "Jurupa Valley", "state": "CA", "_lat": 33.9989, "_lng": -117.4854, "sqft": 47022, "type": "Warehouse", "coverage": "no current requirement (confirmed)", "status": "none", "penalty": 0, "deadline": "", "proc": 0, "dr": 0, "mon": 0, "gas": 0, "elec": 0, "q_gas": false, "q_elec": false, "q_dr": false, "util_dir": true, "util_min": 3, "utility": "Southern Cal Gas; Southern California Edison", "at_risk": false}, {"id": 26, "address": "4525 Frederick Dr SW", "city": "Atlanta", "state": "GA", "_lat": 33.749, "_lng": -84.388, "sqft": 116448, "type": "Warehouse", "coverage": "active law (data ingested)", "status": "fined", "penalty": 750, "deadline": "2026-12-31", "proc": 6987, "dr": 815, "mon": 7802, "gas": 6987, "elec": 0, "q_gas": true, "q_elec": false, "q_dr": true, "util_dir": true, "util_min": 5, "utility": "Georgia Power", "at_risk": true}, {"id": 27, "address": "777 Freeport Pky", "city": "Coppell", "state": "TX", "_lat": 32.9546, "_lng": -97.015, "sqft": 726944, "type": "Warehouse", "coverage": "no current requirement (confirmed)", "status": "none", "penalty": 0, "deadline": "", "proc": 101772, "dr": 5089, "mon": 106861, "gas": 0, "elec": 101772, "q_gas": false, "q_elec": true, "q_dr": true, "util_dir": false, "util_min": null, "utility": "Denton County Elec Coop, Inc", "at_risk": false}, {"id": 28, "address": "2350 Frieder Ln", "city": "Aurora", "state": "IL", "_lat": 41.7606, "_lng": -88.3201, "sqft": 503244, "type": "Warehouse", "coverage": "no current requirement (confirmed)", "status": "none", "penalty": 0, "deadline": "", "proc": 100649, "dr": 3523, "mon": 104172, "gas": 30195, "elec": 70454, "q_gas": true, "q_elec": true, "q_dr": true, "util_dir": true, "util_min": 4, "utility": "Commonwealth Edison", "at_risk": false}, {"id": 29, "address": "552-598 Garden Oaks Blvd", "city": "Houston", "state": "TX", "_lat": 29.7601, "_lng": -95.3701, "sqft": 192430, "type": "Warehouse", "coverage": "no current requirement (confirmed)", "status": "none", "penalty": 0, "deadline": "", "proc": 26940, "dr": 1347, "mon": 28287, "gas": 0, "elec": 26940, "q_gas": false, "q_elec": true, "q_dr": true, "util_dir": false, "util_min": null, "utility": "CenterPoint Energy Houston Electric LLC", "at_risk": false}, {"id": 30, "address": "7405 Graham Rd", "city": "Fairburn", "state": "GA", "_lat": 33.5659, "_lng": -84.5794, "sqft": 204310, "type": "Warehouse", "coverage": "no current requirement (confirmed)", "status": "none", "penalty": 0, "deadline": "", "proc": 12259, "dr": 1430, "mon": 13689, "gas": 12259, "elec": 0, "q_gas": true, "q_elec": false, "q_dr": true, "util_dir": true, "util_min": 5, "utility": "Georgia Power", "at_risk": false}, {"id": 31, "address": "12668 Hancock Rd", "city": "Clermont", "state": "FL", "_lat": 28.5494, "_lng": -81.7729, "sqft": 44598, "type": "Warehouse", "coverage": "no current requirement (confirmed)", "status": "none", "penalty": 0, "deadline": "", "proc": 0, "dr": 0, "mon": 0, "gas": 0, "elec": 0, "q_gas": false, "q_elec": false, "q_dr": false, "util_dir": false, "util_min": null, "utility": "Duke Energy Florida, LLC, Sumter Electric Coop, Inc", "at_risk": false}, {"id": 32, "address": "2950 E Philadelphia St", "city": "Ontario", "state": "CA", "_lat": 34.0633, "_lng": -117.6509, "sqft": 236691, "type": "Warehouse", "coverage": "active law (data ingested)", "status": "fined", "penalty": 6250, "deadline": "", "proc": 0, "dr": 1657, "mon": 1657, "gas": 0, "elec": 0, "q_gas": false, "q_elec": false, "q_dr": true, "util_dir": true, "util_min": 3, "utility": "Southern Cal Gas; Southern California Edison", "at_risk": true}, {"id": 33, "address": "1461 Railroad St", "city": "Corona", "state": "CA", "_lat": 33.8753, "_lng": -117.5664, "sqft": 38069, "type": "Warehouse", "coverage": "no current requirement (confirmed)", "status": "none", "penalty": 0, "deadline": "", "proc": 0, "dr": 0, "mon": 0, "gas": 0, "elec": 0, "q_gas": false, "q_elec": false, "q_dr": false, "util_dir": true, "util_min": 3, "utility": "Southern Cal Gas; Southern California Edison", "at_risk": false}, {"id": 34, "address": "7259 Rankin Rd", "city": "Humble", "state": "TX", "_lat": 29.9988, "_lng": -95.2622, "sqft": 196064, "type": "Warehouse", "coverage": "no current requirement (confirmed)", "status": "none", "penalty": 0, "deadline": "", "proc": 27449, "dr": 1372, "mon": 28821, "gas": 0, "elec": 27449, "q_gas": false, "q_elec": true, "q_dr": true, "util_dir": false, "util_min": null, "utility": "CenterPoint Energy Houston Electric LLC", "at_risk": false}, {"id": 35, "address": "675 S Royal Ln", "city": "Coppell", "state": "TX", "_lat": 32.9546, "_lng": -97.015, "sqft": 171600, "type": "Warehouse", "coverage": "no current requirement (confirmed)", "status": "none", "penalty": 0, "deadline": "", "proc": 24024, "dr": 1201, "mon": 25225, "gas": 0, "elec": 24024, "q_gas": false, "q_elec": true, "q_dr": true, "util_dir": false, "util_min": null, "utility": "Denton County Elec Coop, Inc", "at_risk": false}, {"id": 36, "address": "4420 Serrano Dr", "city": "Jurupa Valley", "state": "CA", "_lat": 33.9989, "_lng": -117.4854, "sqft": 180840, "type": "Warehouse", "coverage": "active law (data ingested)", "status": "fined", "penalty": 6250, "deadline": "", "proc": 0, "dr": 1266, "mon": 1266, "gas": 0, "elec": 0, "q_gas": false, "q_elec": false, "q_dr": true, "util_dir": true, "util_min": 3, "utility": "Southern Cal Gas; Southern California Edison", "at_risk": true}, {"id": 37, "address": "4301-4311 Shilling Way", "city": "Dallas", "state": "TX", "_lat": 32.7767, "_lng": -96.797, "sqft": 74200, "type": "Warehouse", "coverage": "no current requirement (confirmed)", "status": "none", "penalty": 0, "deadline": "", "proc": 10388, "dr": 0, "mon": 10388, "gas": 0, "elec": 10388, "q_gas": false, "q_elec": true, "q_dr": false, "util_dir": false, "util_min": null, "utility": "Oncor Electric Delivery [Energy Future Holdings Corp]", "at_risk": false}, {"id": 38, "address": "3645 Southside Industrial Pky", "city": "Atlanta", "state": "GA", "_lat": 33.749, "_lng": -84.388, "sqft": 76000, "type": "Warehouse", "coverage": "active law (data ingested)", "status": "fined", "penalty": 750, "deadline": "2026-12-31", "proc": 4560, "dr": 532, "mon": 5092, "gas": 4560, "elec": 0, "q_gas": true, "q_elec": false, "q_dr": true, "util_dir": true, "util_min": 5, "utility": "Georgia Power", "at_risk": true}, {"id": 39, "address": "1102 State Highway 161", "city": "Grand Prairie", "state": "TX", "_lat": 32.7459, "_lng": -97.0342, "sqft": 322824, "type": "Warehouse", "coverage": "no current requirement (confirmed)", "status": "none", "penalty": 0, "deadline": "", "proc": 45195, "dr": 2260, "mon": 47455, "gas": 0, "elec": 45195, "q_gas": false, "q_elec": true, "q_dr": true, "util_dir": false, "util_min": null, "utility": "Oncor Electric Delivery [Energy Future Holdings Corp]", "at_risk": false}, {"id": 40, "address": "1950 Sterling Ave", "city": "Ontario", "state": "CA", "_lat": 34.0633, "_lng": -117.6509, "sqft": 300172, "type": "Warehouse", "coverage": "active law (data ingested)", "status": "fined", "penalty": 6250, "deadline": "", "proc": 0, "dr": 2101, "mon": 2101, "gas": 0, "elec": 0, "q_gas": false, "q_elec": false, "q_dr": true, "util_dir": true, "util_min": 3, "utility": "Southern Cal Gas; Southern California Edison", "at_risk": true}, {"id": 41, "address": "4527 E Warner Rd", "city": "Gilbert", "state": "AZ", "_lat": 33.3528, "_lng": -111.789, "sqft": 85317, "type": "Warehouse", "coverage": "no current requirement (confirmed)", "status": "none", "penalty": 0, "deadline": "", "proc": 0, "dr": 597, "mon": 597, "gas": 0, "elec": 0, "q_gas": false, "q_elec": false, "q_dr": true, "util_dir": false, "util_min": null, "utility": "Salt River Project", "at_risk": false}, {"id": 42, "address": "4460 NE 150th Ct", "city": "Portland", "state": "OR", "_lat": 45.5152, "_lng": -122.6784, "sqft": 51618, "type": "Warehouse", "coverage": "active law, no penalty yet", "status": "active", "penalty": 0, "deadline": "2026-12-31", "proc": 0, "dr": 0, "mon": 0, "gas": 0, "elec": 0, "q_gas": false, "q_elec": false, "q_dr": false, "util_dir": true, "util_min": 5, "utility": "NW Natural; Portland General Electric", "at_risk": false}, {"id": 43, "address": "18209 Chisholm Trl", "city": "Houston", "state": "TX", "_lat": 29.7601, "_lng": -95.3701, "sqft": 43517, "type": "Warehouse", "coverage": "no current requirement (confirmed)", "status": "none", "penalty": 0, "deadline": "", "proc": 6092, "dr": 0, "mon": 6092, "gas": 0, "elec": 6092, "q_gas": false, "q_elec": true, "q_dr": false, "util_dir": false, "util_min": null, "utility": "CenterPoint Energy Houston Electric LLC", "at_risk": false}, {"id": 44, "address": "450 E Germann Rd", "city": "Gilbert", "state": "AZ", "_lat": 33.3528, "_lng": -111.789, "sqft": 317058, "type": "Warehouse", "coverage": "no current requirement (confirmed)", "status": "none", "penalty": 0, "deadline": "", "proc": 0, "dr": 2219, "mon": 2219, "gas": 0, "elec": 0, "q_gas": false, "q_elec": false, "q_dr": true, "util_dir": false, "util_min": null, "utility": "Salt River Project", "at_risk": false}, {"id": 45, "address": "4615-4651 Greatland Dr", "city": "San Antonio", "state": "TX", "_lat": 29.4241, "_lng": -98.4936, "sqft": 100500, "type": "Warehouse", "coverage": "no current requirement (confirmed)", "status": "none", "penalty": 0, "deadline": "", "proc": 14070, "dr": 704, "mon": 14774, "gas": 0, "elec": 14070, "q_gas": false, "q_elec": true, "q_dr": true, "util_dir": false, "util_min": null, "utility": "City of San Antonio - (TX)", "at_risk": false}, {"id": 46, "address": "6001 N Hiatus Rd", "city": "Tamarac", "state": "FL", "_lat": 26.2129, "_lng": -80.2453, "sqft": 64995, "type": "Warehouse", "coverage": "no current requirement (confirmed)", "status": "none", "penalty": 0, "deadline": "", "proc": 0, "dr": 0, "mon": 0, "gas": 0, "elec": 0, "q_gas": false, "q_elec": false, "q_dr": false, "util_dir": false, "util_min": null, "utility": "Florida Power & Light Co", "at_risk": false}, {"id": 47, "address": "721 Nevada St", "city": "Redlands", "state": "CA", "_lat": 34.0556, "_lng": -117.1825, "sqft": 27744, "type": "Warehouse", "coverage": "no current requirement (confirmed)", "status": "none", "penalty": 0, "deadline": "", "proc": 0, "dr": 0, "mon": 0, "gas": 0, "elec": 0, "q_gas": false, "q_elec": false, "q_dr": false, "util_dir": true, "util_min": 3, "utility": "Southern Cal Gas; Southern California Edison", "at_risk": false}, {"id": 48, "address": "6304 Sheriff Rd", "city": "Landover", "state": "MD", "_lat": 38.9351, "_lng": -76.8564, "sqft": 553513, "type": "Warehouse", "coverage": "active law (data ingested)", "status": "fined", "penalty": 83027, "deadline": "2025-12-31", "proc": 110703, "dr": 3875, "mon": 114578, "gas": 33211, "elec": 77492, "q_gas": true, "q_elec": true, "q_dr": true, "util_dir": true, "util_min": 5, "utility": "Baltimore Gas & Electric; Pepco; Washington Gas", "at_risk": true}, {"id": 49, "address": "2501 E Valley Rd", "city": "Renton", "state": "WA", "_lat": 47.4829, "_lng": -122.2171, "sqft": 459349, "type": "Warehouse", "coverage": "active law (data ingested)", "status": "fined", "penalty": 505284, "deadline": "2026-12-31", "proc": 0, "dr": 3215, "mon": 3215, "gas": 0, "elec": 0, "q_gas": false, "q_elec": false, "q_dr": true, "util_dir": true, "util_min": 5, "utility": "Puget Sound Energy", "at_risk": true}, {"id": 50, "address": "2160 E 7th St", "city": "Los Angeles", "state": "CA", "_lat": 34.0522, "_lng": -118.2437, "sqft": 75163, "type": "Warehouse", "coverage": "active law (data ingested)", "status": "fined", "penalty": 6250, "deadline": "", "proc": 0, "dr": 526, "mon": 526, "gas": 0, "elec": 0, "q_gas": false, "q_elec": false, "q_dr": true, "util_dir": true, "util_min": 3, "utility": "Los Angeles Department of Water and Power; Southern Cal Gas; Southern California Edison", "at_risk": true}, {"id": 51, "address": "1801 10th St", "city": "Plano", "state": "TX", "_lat": 33.0198, "_lng": -96.6989, "sqft": 100000, "type": "Warehouse", "coverage": "no current requirement (confirmed)", "status": "none", "penalty": 0, "deadline": "", "proc": 14000, "dr": 700, "mon": 14700, "gas": 0, "elec": 14000, "q_gas": false, "q_elec": true, "q_dr": true, "util_dir": false, "util_min": null, "utility": "Denton County Elec Coop, Inc, Grayson-Collin Elec Coop, Inc", "at_risk": false}, {"id": 52, "address": "1809 10th St", "city": "Plano", "state": "TX", "_lat": 33.0198, "_lng": -96.6989, "sqft": 122921, "type": "Warehouse", "coverage": "no current requirement (confirmed)", "status": "none", "penalty": 0, "deadline": "", "proc": 17209, "dr": 860, "mon": 18069, "gas": 0, "elec": 17209, "q_gas": false, "q_elec": true, "q_dr": true, "util_dir": false, "util_min": null, "utility": "Denton County Elec Coop, Inc, Grayson-Collin Elec Coop, Inc", "at_risk": false}, {"id": 53, "address": "922 E 11th St", "city": "Tacoma", "state": "WA", "_lat": 47.2529, "_lng": -122.4443, "sqft": 166950, "type": "Warehouse", "coverage": "active law (data ingested)", "status": "fined", "penalty": 183645, "deadline": "2026-12-31", "proc": 0, "dr": 1169, "mon": 1169, "gas": 0, "elec": 0, "q_gas": false, "q_elec": false, "q_dr": true, "util_dir": true, "util_min": 3, "utility": "Puget Sound Energy; Tacoma Public Utilities", "at_risk": true}, {"id": 54, "address": "3800-3898 W 11th St", "city": "Houston", "state": "TX", "_lat": 29.7601, "_lng": -95.3701, "sqft": 106141, "type": "Warehouse", "coverage": "no current requirement (confirmed)", "status": "none", "penalty": 0, "deadline": "", "proc": 14860, "dr": 743, "mon": 15603, "gas": 0, "elec": 14860, "q_gas": false, "q_elec": true, "q_dr": true, "util_dir": false, "util_min": null, "utility": "CenterPoint Energy Houston Electric LLC", "at_risk": false}, {"id": 55, "address": "6141 20th St", "city": "Jurupa Valley", "state": "CA", "_lat": 33.9989, "_lng": -117.4854, "sqft": 25949, "type": "Warehouse", "coverage": "no current requirement (confirmed)", "status": "none", "penalty": 0, "deadline": "", "proc": 0, "dr": 0, "mon": 0, "gas": 0, "elec": 0, "q_gas": false, "q_elec": false, "q_dr": false, "util_dir": true, "util_min": 3, "utility": "Southern Cal Gas; Southern California Edison", "at_risk": false}, {"id": 56, "address": "6143 20th St", "city": "Jurupa Valley", "state": "CA", "_lat": 33.9989, "_lng": -117.4854, "sqft": 29848, "type": "Warehouse", "coverage": "no current requirement (confirmed)", "status": "none", "penalty": 0, "deadline": "", "proc": 0, "dr": 0, "mon": 0, "gas": 0, "elec": 0, "q_gas": false, "q_elec": false, "q_dr": false, "util_dir": true, "util_min": 3, "utility": "Southern Cal Gas; Southern California Edison", "at_risk": false}, {"id": 57, "address": "645 W 24th St", "city": "Tempe", "state": "AZ", "_lat": 33.4255, "_lng": -111.94, "sqft": 22658, "type": "Warehouse", "coverage": "no current requirement (confirmed)", "status": "none", "penalty": 0, "deadline": "", "proc": 0, "dr": 0, "mon": 0, "gas": 0, "elec": 0, "q_gas": false, "q_elec": false, "q_dr": false, "util_dir": false, "util_min": null, "utility": "Salt River Project", "at_risk": false}, {"id": 58, "address": "849 W 24th St", "city": "Tempe", "state": "AZ", "_lat": 33.4255, "_lng": -111.94, "sqft": 35949, "type": "Warehouse", "coverage": "no current requirement (confirmed)", "status": "none", "penalty": 0, "deadline": "", "proc": 0, "dr": 0, "mon": 0, "gas": 0, "elec": 0, "q_gas": false, "q_elec": false, "q_dr": false, "util_dir": false, "util_min": null, "utility": "Salt River Project", "at_risk": false}, {"id": 59, "address": "6500 26th St E", "city": "Fife", "state": "WA", "_lat": 47.2395, "_lng": -122.3593, "sqft": 331530, "type": "Warehouse", "coverage": "active law (data ingested)", "status": "fined", "penalty": 364683, "deadline": "2026-12-31", "proc": 0, "dr": 2321, "mon": 2321, "gas": 0, "elec": 0, "q_gas": false, "q_elec": false, "q_dr": true, "util_dir": true, "util_min": 3, "utility": "Puget Sound Energy; Tacoma Public Utilities", "at_risk": true}, {"id": 60, "address": "6501 26th St E", "city": "Fife", "state": "WA", "_lat": 47.2395, "_lng": -122.3593, "sqft": 234000, "type": "Warehouse", "coverage": "active law (data ingested)", "status": "fined", "penalty": 257400, "deadline": "2026-12-31", "proc": 0, "dr": 1638, "mon": 1638, "gas": 0, "elec": 0, "q_gas": false, "q_elec": false, "q_dr": true, "util_dir": true, "util_min": 3, "utility": "Puget Sound Energy; Tacoma Public Utilities", "at_risk": true}, {"id": 61, "address": "2601 NE 33rd St", "city": "Fort Worth", "state": "TX", "_lat": 32.7555, "_lng": -97.3308, "sqft": 250965, "type": "Warehouse", "coverage": "no current requirement (confirmed)", "status": "none", "penalty": 0, "deadline": "", "proc": 35135, "dr": 1757, "mon": 36892, "gas": 0, "elec": 35135, "q_gas": false, "q_elec": true, "q_dr": true, "util_dir": false, "util_min": null, "utility": "Oncor Electric Delivery [Energy Future Holdings Corp]", "at_risk": false}, {"id": 62, "address": "10035 E 40th Ave", "city": "Denver", "state": "CO", "_lat": 39.7392, "_lng": -104.9903, "sqft": 139695, "type": "Warehouse", "coverage": "active law (data ingested)", "status": "fined", "penalty": 11176, "deadline": "2026-12-31", "proc": 0, "dr": 978, "mon": 978, "gas": 0, "elec": 0, "q_gas": false, "q_elec": false, "q_dr": true, "util_dir": true, "util_min": 4, "utility": "Xcel Energy", "at_risk": true}, {"id": 63, "address": "10075 E 40th Ave", "city": "Denver", "state": "CO", "_lat": 39.7392, "_lng": -104.9903, "sqft": 148902, "type": "Warehouse", "coverage": "active law (data ingested)", "status": "fined", "penalty": 11912, "deadline": "2026-12-31", "proc": 0, "dr": 1042, "mon": 1042, "gas": 0, "elec": 0, "q_gas": false, "q_elec": false, "q_dr": true, "util_dir": true, "util_min": 4, "utility": "Xcel Energy", "at_risk": true}, {"id": 64, "address": "15712 SW 41st St", "city": "Davie", "state": "FL", "_lat": 26.0765, "_lng": -80.2521, "sqft": 105812, "type": "Warehouse", "coverage": "no current requirement (confirmed)", "status": "none", "penalty": 0, "deadline": "", "proc": 0, "dr": 741, "mon": 741, "gas": 0, "elec": 0, "q_gas": false, "q_elec": false, "q_dr": true, "util_dir": false, "util_min": null, "utility": "Florida Power & Light Co", "at_risk": false}, {"id": 65, "address": "2000 E 49th St", "city": "Vernon", "state": "CA", "_lat": 34.0039, "_lng": -118.2296, "sqft": 60500, "type": "Warehouse", "coverage": "active law (data ingested)", "status": "fined", "penalty": 6250, "deadline": "", "proc": 0, "dr": 0, "mon": 0, "gas": 0, "elec": 0, "q_gas": false, "q_elec": false, "q_dr": false, "util_dir": true, "util_min": 3, "utility": "Los Angeles Department of Water and Power; Southern Cal Gas; Southern California Edison", "at_risk": true}, {"id": 66, "address": "2050-2080 E 49th St", "city": "Vernon", "state": "CA", "_lat": 34.0039, "_lng": -118.2296, "sqft": 108000, "type": "Warehouse", "coverage": "active law (data ingested)", "status": "fined", "penalty": 6250, "deadline": "", "proc": 0, "dr": 756, "mon": 756, "gas": 0, "elec": 0, "q_gas": false, "q_elec": false, "q_dr": true, "util_dir": true, "util_min": 3, "utility": "Los Angeles Department of Water and Power; Southern Cal Gas; Southern California Edison", "at_risk": true}, {"id": 67, "address": "2060 S 51st Ave", "city": "Phoenix", "state": "AZ", "_lat": 33.4484, "_lng": -112.074, "sqft": 319860, "type": "Warehouse", "coverage": "no current requirement (confirmed)", "status": "none", "penalty": 0, "deadline": "", "proc": 0, "dr": 2239, "mon": 2239, "gas": 0, "elec": 0, "q_gas": false, "q_elec": false, "q_dr": true, "util_dir": false, "util_min": null, "utility": "Salt River Project", "at_risk": false}, {"id": 68, "address": "12210 62nd St N", "city": "Largo", "state": "FL", "_lat": 27.9095, "_lng": -82.7873, "sqft": 104747, "type": "Warehouse", "coverage": "no current requirement (confirmed)", "status": "none", "penalty": 0, "deadline": "", "proc": 0, "dr": 733, "mon": 733, "gas": 0, "elec": 0, "q_gas": false, "q_elec": false, "q_dr": true, "util_dir": false, "util_min": null, "utility": "Duke Energy Florida, LLC", "at_risk": false}, {"id": 69, "address": "2075 W 64th Ave", "city": "Denver", "state": "CO", "_lat": 39.7392, "_lng": -104.9903, "sqft": 157100, "type": "Warehouse", "coverage": "active law (data ingested)", "status": "fined", "penalty": 12568, "deadline": "2026-12-31", "proc": 0, "dr": 1100, "mon": 1100, "gas": 0, "elec": 0, "q_gas": false, "q_elec": false, "q_dr": true, "util_dir": true, "util_min": 4, "utility": "Xcel Energy", "at_risk": true}, {"id": 70, "address": "2175 W 64th Ave", "city": "Denver", "state": "CO", "_lat": 39.7392, "_lng": -104.9903, "sqft": 62870, "type": "Warehouse", "coverage": "active law (data ingested)", "status": "fined", "penalty": 5030, "deadline": "2026-12-31", "proc": 0, "dr": 0, "mon": 0, "gas": 0, "elec": 0, "q_gas": false, "q_elec": false, "q_dr": false, "util_dir": true, "util_min": 4, "utility": "Xcel Energy", "at_risk": true}, {"id": 71, "address": "2804 70th Ave E", "city": "Fife", "state": "WA", "_lat": 47.2395, "_lng": -122.3593, "sqft": 205104, "type": "Warehouse", "coverage": "active law (data ingested)", "status": "fined", "penalty": 225614, "deadline": "2026-12-31", "proc": 0, "dr": 1436, "mon": 1436, "gas": 0, "elec": 0, "q_gas": false, "q_elec": false, "q_dr": true, "util_dir": true, "util_min": 3, "utility": "Puget Sound Energy; Tacoma Public Utilities", "at_risk": true}, {"id": 72, "address": "18852-18858 72nd Ave S", "city": "Kent", "state": "WA", "_lat": 47.3809, "_lng": -122.2348, "sqft": 25950, "type": "Warehouse", "coverage": "active law, compliance pending", "status": "active", "penalty": 0, "deadline": "2027-12-31", "proc": 0, "dr": 0, "mon": 0, "gas": 0, "elec": 0, "q_gas": false, "q_elec": false, "q_dr": false, "util_dir": true, "util_min": 5, "utility": "Puget Sound Energy", "at_risk": false}, {"id": 73, "address": "18862-18872 72nd Ave S", "city": "Kent", "state": "WA", "_lat": 47.3809, "_lng": -122.2348, "sqft": 34580, "type": "Warehouse", "coverage": "active law, compliance pending", "status": "active", "penalty": 0, "deadline": "2027-12-31", "proc": 0, "dr": 0, "mon": 0, "gas": 0, "elec": 0, "q_gas": false, "q_elec": false, "q_dr": false, "util_dir": true, "util_min": 5, "utility": "Puget Sound Energy", "at_risk": false}, {"id": 74, "address": "5139 W 73rd St", "city": "Bedford Park", "state": "IL", "_lat": 41.7659, "_lng": -87.7862, "sqft": 270789, "type": "Warehouse", "coverage": "no current requirement (confirmed)", "status": "none", "penalty": 0, "deadline": "", "proc": 54157, "dr": 1896, "mon": 56053, "gas": 16247, "elec": 37910, "q_gas": true, "q_elec": true, "q_dr": true, "util_dir": true, "util_min": 4, "utility": "Commonwealth Edison", "at_risk": false}, {"id": 75, "address": "5151 W 73rd St", "city": "Bedford Park", "state": "IL", "_lat": 41.7659, "_lng": -87.7862, "sqft": 272446, "type": "Warehouse", "coverage": "no current requirement (confirmed)", "status": "none", "penalty": 0, "deadline": "", "proc": 54489, "dr": 1907, "mon": 56396, "gas": 16347, "elec": 38142, "q_gas": true, "q_elec": true, "q_dr": true, "util_dir": true, "util_min": 4, "utility": "Commonwealth Edison", "at_risk": false}, {"id": 76, "address": "5445 W 73rd St", "city": "Bedford Park", "state": "IL", "_lat": 41.7659, "_lng": -87.7862, "sqft": 470160, "type": "Warehouse", "coverage": "no current requirement (confirmed)", "status": "none", "penalty": 0, "deadline": "", "proc": 94032, "dr": 3291, "mon": 97323, "gas": 28210, "elec": 65822, "q_gas": true, "q_elec": true, "q_dr": true, "util_dir": true, "util_min": 4, "utility": "Commonwealth Edison", "at_risk": false}, {"id": 77, "address": "10440 89th Ave N", "city": "Maple Grove", "state": "MN", "_lat": 45.0725, "_lng": -93.4557, "sqft": 297024, "type": "Warehouse", "coverage": "no current requirement (confirmed)", "status": "none", "penalty": 0, "deadline": "", "proc": 0, "dr": 2079, "mon": 2079, "gas": 0, "elec": 0, "q_gas": false, "q_elec": false, "q_dr": true, "util_dir": true, "util_min": 4, "utility": "CenterPoint Energy; Xcel Energy", "at_risk": false}, {"id": 78, "address": "20191-20245 SW 95th Ave", "city": "Tualatin", "state": "OR", "_lat": 45.3843, "_lng": -122.7639, "sqft": 59756, "type": "Warehouse", "coverage": "no current requirement (confirmed)", "status": "none", "penalty": 0, "deadline": "", "proc": 0, "dr": 0, "mon": 0, "gas": 0, "elec": 0, "q_gas": false, "q_elec": false, "q_dr": false, "util_dir": false, "util_min": null, "utility": "Portland General Electric Co", "at_risk": false}, {"id": 79, "address": "6070 W 150 S", "city": "Salt Lake City", "state": "UT", "_lat": 40.7608, "_lng": -111.891, "sqft": 243232, "type": "Warehouse", "coverage": "active law (data ingested)", "status": "fined", "penalty": 500, "deadline": "2027-05-01", "proc": 0, "dr": 1703, "mon": 1703, "gas": 0, "elec": 0, "q_gas": false, "q_elec": false, "q_dr": true, "util_dir": true, "util_min": 5, "utility": "Dominion Energy (formerly Questar Gas); Rocky Mountain Power", "at_risk": true}, {"id": 80, "address": "4465 NE 150th Ct", "city": "Portland", "state": "OR", "_lat": 45.5152, "_lng": -122.6784, "sqft": 49975, "type": "Warehouse", "coverage": "active law, no penalty yet", "status": "active", "penalty": 0, "deadline": "2026-12-31", "proc": 0, "dr": 0, "mon": 0, "gas": 0, "elec": 0, "q_gas": false, "q_elec": false, "q_dr": false, "util_dir": true, "util_min": 5, "utility": "NW Natural; Portland General Electric", "at_risk": false}, {"id": 81, "address": "4417 192nd St E", "city": "Tacoma", "state": "WA", "_lat": 47.2529, "_lng": -122.4443, "sqft": 281181, "type": "Warehouse", "coverage": "active law (data ingested)", "status": "fined", "penalty": 309299, "deadline": "2026-12-31", "proc": 0, "dr": 1968, "mon": 1968, "gas": 0, "elec": 0, "q_gas": false, "q_elec": false, "q_dr": true, "util_dir": true, "util_min": 3, "utility": "Puget Sound Energy; Tacoma Public Utilities", "at_risk": true}, {"id": 82, "address": "9583 217th St W", "city": "Lakeville", "state": "MN", "_lat": 44.6497, "_lng": -93.2427, "sqft": 157820, "type": "Warehouse", "coverage": "no current requirement (confirmed)", "status": "none", "penalty": 0, "deadline": "", "proc": 0, "dr": 1105, "mon": 1105, "gas": 0, "elec": 0, "q_gas": false, "q_elec": false, "q_dr": true, "util_dir": true, "util_min": 4, "utility": "CenterPoint Energy; Xcel Energy", "at_risk": false}, {"id": 83, "address": "6075 W 300 S", "city": "Salt Lake City", "state": "UT", "_lat": 40.7608, "_lng": -111.891, "sqft": 353290, "type": "Warehouse", "coverage": "active law (data ingested)", "status": "fined", "penalty": 500, "deadline": "2027-05-01", "proc": 0, "dr": 2473, "mon": 2473, "gas": 0, "elec": 0, "q_gas": false, "q_elec": false, "q_dr": true, "util_dir": true, "util_min": 5, "utility": "Dominion Energy (formerly Questar Gas); Rocky Mountain Power", "at_risk": true}, {"id": 84, "address": "6195 W 300 S", "city": "Salt Lake City", "state": "UT", "_lat": 40.7608, "_lng": -111.891, "sqft": 430920, "type": "Warehouse", "coverage": "active law (data ingested)", "status": "fined", "penalty": 500, "deadline": "2027-05-01", "proc": 0, "dr": 3016, "mon": 3016, "gas": 0, "elec": 0, "q_gas": false, "q_elec": false, "q_dr": true, "util_dir": true, "util_min": 5, "utility": "Dominion Energy (formerly Questar Gas); Rocky Mountain Power", "at_risk": true}, {"id": 85, "address": "6338 W 700 N", "city": "Salt Lake City", "state": "UT", "_lat": 40.7608, "_lng": -111.891, "sqft": 222325, "type": "Warehouse", "coverage": "active law (data ingested)", "status": "fined", "penalty": 500, "deadline": "2027-05-01", "proc": 0, "dr": 1556, "mon": 1556, "gas": 0, "elec": 0, "q_gas": false, "q_elec": false, "q_dr": true, "util_dir": true, "util_min": 5, "utility": "Dominion Energy (formerly Questar Gas); Rocky Mountain Power", "at_risk": true}, {"id": 86, "address": "6050-6100 W 700 S", "city": "Salt Lake City", "state": "UT", "_lat": 40.7608, "_lng": -111.891, "sqft": 418720, "type": "Warehouse", "coverage": "active law (data ingested)", "status": "fined", "penalty": 500, "deadline": "2027-05-01", "proc": 0, "dr": 2931, "mon": 2931, "gas": 0, "elec": 0, "q_gas": false, "q_elec": false, "q_dr": true, "util_dir": true, "util_min": 5, "utility": "Dominion Energy (formerly Questar Gas); Rocky Mountain Power", "at_risk": true}, {"id": 87, "address": "4250 W 2100 S", "city": "Salt Lake City", "state": "UT", "_lat": 40.7608, "_lng": -111.891, "sqft": 36656, "type": "Warehouse", "coverage": "active law (data ingested)", "status": "fined", "penalty": 500, "deadline": "2027-05-01", "proc": 0, "dr": 0, "mon": 0, "gas": 0, "elec": 0, "q_gas": false, "q_elec": false, "q_dr": false, "util_dir": true, "util_min": 5, "utility": "Dominion Energy (formerly Questar Gas); Rocky Mountain Power", "at_risk": true}, {"id": 88, "address": "1220 N 2200 W", "city": "Salt Lake City", "state": "UT", "_lat": 40.7608, "_lng": -111.891, "sqft": 186188, "type": "Warehouse", "coverage": "active law (data ingested)", "status": "fined", "penalty": 500, "deadline": "2027-05-01", "proc": 0, "dr": 1303, "mon": 1303, "gas": 0, "elec": 0, "q_gas": false, "q_elec": false, "q_dr": true, "util_dir": true, "util_min": 5, "utility": "Dominion Energy (formerly Questar Gas); Rocky Mountain Power", "at_risk": true}, {"id": 89, "address": "4075 W 2200 S", "city": "West Valley City", "state": "UT", "_lat": 40.6916, "_lng": -112.0011, "sqft": 45128, "type": "Warehouse", "coverage": "no current requirement (confirmed)", "status": "none", "penalty": 0, "deadline": "", "proc": 0, "dr": 0, "mon": 0, "gas": 0, "elec": 0, "q_gas": false, "q_elec": false, "q_dr": false, "util_dir": true, "util_min": 5, "utility": "Dominion Energy (formerly Questar Gas); Rocky Mountain Power", "at_risk": false}, {"id": 90, "address": "4111 W 2200 S", "city": "West Valley", "state": "UT", "_lat": 40.6916, "_lng": -112.0011, "sqft": 42140, "type": "Warehouse", "coverage": "no current requirement (confirmed)", "status": "none", "penalty": 0, "deadline": "", "proc": 0, "dr": 0, "mon": 0, "gas": 0, "elec": 0, "q_gas": false, "q_elec": false, "q_dr": false, "util_dir": true, "util_min": 5, "utility": "Dominion Energy (formerly Questar Gas); Rocky Mountain Power", "at_risk": false}, {"id": 91, "address": "1210 S 3600 W", "city": "Salt Lake City", "state": "UT", "_lat": 40.7608, "_lng": -111.891, "sqft": 38400, "type": "Warehouse", "coverage": "active law (data ingested)", "status": "fined", "penalty": 500, "deadline": "2027-05-01", "proc": 0, "dr": 0, "mon": 0, "gas": 0, "elec": 0, "q_gas": false, "q_elec": false, "q_dr": false, "util_dir": true, "util_min": 5, "utility": "Dominion Energy (formerly Questar Gas); Rocky Mountain Power", "at_risk": true}, {"id": 92, "address": "4673-4681 Aircenter Cir", "city": "Reno", "state": "NV", "_lat": 39.5296, "_lng": -119.8138, "sqft": 106164, "type": "Warehouse", "coverage": "monitored / pending", "status": "pending", "penalty": 0, "deadline": "", "proc": 0, "dr": 743, "mon": 743, "gas": 0, "elec": 0, "q_gas": false, "q_elec": false, "q_dr": true, "util_dir": true, "util_min": null, "utility": "NV Energy", "at_risk": false}, {"id": 93, "address": "4689 Aircenter Cir", "city": "Reno", "state": "NV", "_lat": 39.5296, "_lng": -119.8138, "sqft": 49055, "type": "Warehouse", "coverage": "monitored / pending", "status": "pending", "penalty": 0, "deadline": "", "proc": 0, "dr": 0, "mon": 0, "gas": 0, "elec": 0, "q_gas": false, "q_elec": false, "q_dr": false, "util_dir": true, "util_min": null, "utility": "NV Energy", "at_risk": false}, {"id": 94, "address": "6020 Airport Dr", "city": "Charlotte", "state": "NC", "_lat": 35.2271, "_lng": -80.8431, "sqft": 148466, "type": "Warehouse", "coverage": "monitored / pending", "status": "pending", "penalty": 0, "deadline": "", "proc": 0, "dr": 1039, "mon": 1039, "gas": 0, "elec": 0, "q_gas": false, "q_elec": false, "q_dr": true, "util_dir": false, "util_min": null, "utility": "Duke Energy Carolinas, LLC", "at_risk": false}, {"id": 95, "address": "6021 Airport Dr", "city": "Charlotte", "state": "NC", "_lat": 35.2271, "_lng": -80.8431, "sqft": 104155, "type": "Warehouse", "coverage": "monitored / pending", "status": "pending", "penalty": 0, "deadline": "", "proc": 0, "dr": 729, "mon": 729, "gas": 0, "elec": 0, "q_gas": false, "q_elec": false, "q_dr": true, "util_dir": false, "util_min": null, "utility": "Duke Energy Carolinas, LLC", "at_risk": false}, {"id": 96, "address": "430 Airtech Pky", "city": "Plainfield", "state": "IN", "_lat": 39.7042, "_lng": -86.3994, "sqft": 172973, "type": "Warehouse", "coverage": "no current requirement (confirmed)", "status": "none", "penalty": 0, "deadline": "", "proc": 0, "dr": 1211, "mon": 1211, "gas": 0, "elec": 0, "q_gas": false, "q_elec": false, "q_dr": true, "util_dir": false, "util_min": null, "utility": "Duke Energy Indiana, LLC, Hendricks County Rural E M C, Indianapolis Power & Light Co", "at_risk": false}, {"id": 97, "address": "8425 Airways Blvd", "city": "Southaven", "state": "MS", "_lat": 34.989, "_lng": -90.0126, "sqft": 205650, "type": "Warehouse", "coverage": "no current requirement (confirmed)", "status": "none", "penalty": 0, "deadline": "", "proc": 0, "dr": 1440, "mon": 1440, "gas": 0, "elec": 0, "q_gas": false, "q_elec": false, "q_dr": true, "util_dir": false, "util_min": null, "utility": "Entergy Mississippi Inc", "at_risk": false}, {"id": 98, "address": "2755 Alft Ln", "city": "Elgin", "state": "IL", "_lat": 42.0354, "_lng": -88.2826, "sqft": 105573, "type": "Warehouse", "coverage": "no current requirement (confirmed)", "status": "none", "penalty": 0, "deadline": "", "proc": 21114, "dr": 739, "mon": 21853, "gas": 6334, "elec": 14780, "q_gas": true, "q_elec": true, "q_dr": true, "util_dir": true, "util_min": 4, "utility": "Commonwealth Edison", "at_risk": false}, {"id": 99, "address": "1305 E Algonquin Rd", "city": "Mount Prospect", "state": "IL", "_lat": 42.0664, "_lng": -87.9373, "sqft": 190606, "type": "Warehouse", "coverage": "no current requirement (confirmed)", "status": "none", "penalty": 0, "deadline": "", "proc": 38121, "dr": 1334, "mon": 39455, "gas": 11436, "elec": 26685, "q_gas": true, "q_elec": true, "q_dr": true, "util_dir": true, "util_min": 4, "utility": "Commonwealth Edison", "at_risk": false}, {"id": 100, "address": "722-740 S Allen St", "city": "San Bernardino", "state": "CA", "_lat": 34.1083, "_lng": -117.2898, "sqft": 40625, "type": "Warehouse", "coverage": "no current requirement (confirmed)", "status": "none", "penalty": 0, "deadline": "", "proc": 0, "dr": 0, "mon": 0, "gas": 0, "elec": 0, "q_gas": false, "q_elec": false, "q_dr": false, "util_dir": true, "util_min": 3, "utility": "Southern Cal Gas; Southern California Edison", "at_risk": false}, {"id": 101, "address": "11099 Almond Ave", "city": "Fontana", "state": "CA", "_lat": 34.0922, "_lng": -117.435, "sqft": 146864, "type": "Warehouse", "coverage": "active law (data ingested)", "status": "fined", "penalty": 6250, "deadline": "", "proc": 0, "dr": 1028, "mon": 1028, "gas": 0, "elec": 0, "q_gas": false, "q_elec": false, "q_dr": true, "util_dir": true, "util_min": 3, "utility": "Southern Cal Gas; Southern California Edison", "at_risk": true}, {"id": 102, "address": "1701 Altamesa Blvd", "city": "Fort Worth", "state": "TX", "_lat": 32.7555, "_lng": -97.3308, "sqft": 154440, "type": "Warehouse", "coverage": "no current requirement (confirmed)", "status": "none", "penalty": 0, "deadline": "", "proc": 21622, "dr": 1081, "mon": 22703, "gas": 0, "elec": 21622, "q_gas": false, "q_elec": true, "q_dr": true, "util_dir": false, "util_min": null, "utility": "Oncor Electric Delivery [Energy Future Holdings Corp]", "at_risk": false}, {"id": 103, "address": "10330 Argonne Woods Dr", "city": "Woodridge", "state": "IL", "_lat": 41.7458, "_lng": -88.0384, "sqft": 81420, "type": "Warehouse", "coverage": "no current requirement (confirmed)", "status": "none", "penalty": 0, "deadline": "", "proc": 16284, "dr": 570, "mon": 16854, "gas": 4885, "elec": 11399, "q_gas": true, "q_elec": true, "q_dr": true, "util_dir": true, "util_min": 4, "utility": "Commonwealth Edison", "at_risk": false}, {"id": 104, "address": "7205 Arlington Ave", "city": "Riverside", "state": "CA", "_lat": 33.9806, "_lng": -117.3755, "sqft": 31021, "type": "Warehouse", "coverage": "no current requirement (confirmed)", "status": "none", "penalty": 0, "deadline": "", "proc": 0, "dr": 0, "mon": 0, "gas": 0, "elec": 0, "q_gas": false, "q_elec": false, "q_dr": false, "util_dir": true, "util_min": 3, "utility": "Southern Cal Gas; Southern California Edison", "at_risk": false}, {"id": 105, "address": "2400 Arthur Ave", "city": "Elk Grove Village", "state": "IL", "_lat": 42.0034, "_lng": -87.9706, "sqft": 230766, "type": "Warehouse", "coverage": "no current requirement (confirmed)", "status": "none", "penalty": 0, "deadline": "", "proc": 46153, "dr": 1615, "mon": 47768, "gas": 13846, "elec": 32307, "q_gas": true, "q_elec": true, "q_dr": true, "util_dir": true, "util_min": 4, "utility": "Commonwealth Edison", "at_risk": false}, {"id": 106, "address": "3515 Atlanta Industrial Pky N", "city": "Atlanta", "state": "GA", "_lat": 33.749, "_lng": -84.388, "sqft": 27614, "type": "Warehouse", "coverage": "active law (data ingested)", "status": "fined", "penalty": 750, "deadline": "2026-12-31", "proc": 1657, "dr": 0, "mon": 1657, "gas": 1657, "elec": 0, "q_gas": true, "q_elec": false, "q_dr": false, "util_dir": true, "util_min": 5, "utility": "Georgia Power", "at_risk": true}, {"id": 107, "address": "3555 Atlanta Industrial Pky N", "city": "Atlanta", "state": "GA", "_lat": 33.749, "_lng": -84.388, "sqft": 20944, "type": "Warehouse", "coverage": "active law (data ingested)", "status": "fined", "penalty": 750, "deadline": "2026-12-31", "proc": 1257, "dr": 0, "mon": 1257, "gas": 1257, "elec": 0, "q_gas": true, "q_elec": false, "q_dr": false, "util_dir": true, "util_min": 5, "utility": "Georgia Power", "at_risk": true}, {"id": 108, "address": "3715 Atlanta Industrial Pky NW", "city": "Atlanta", "state": "GA", "_lat": 33.749, "_lng": -84.388, "sqft": 40879, "type": "Warehouse", "coverage": "active law (data ingested)", "status": "fined", "penalty": 750, "deadline": "2026-12-31", "proc": 2453, "dr": 0, "mon": 2453, "gas": 2453, "elec": 0, "q_gas": true, "q_elec": false, "q_dr": false, "util_dir": true, "util_min": 5, "utility": "Georgia Power", "at_risk": true}, {"id": 109, "address": "1475 Avenue S", "city": "Grand Prairie", "state": "TX", "_lat": 32.7459, "_lng": -97.0342, "sqft": 45700, "type": "Warehouse", "coverage": "no current requirement (confirmed)", "status": "none", "penalty": 0, "deadline": "", "proc": 6398, "dr": 0, "mon": 6398, "gas": 0, "elec": 6398, "q_gas": false, "q_elec": true, "q_dr": false, "util_dir": false, "util_min": null, "utility": "Oncor Electric Delivery [Energy Future Holdings Corp]", "at_risk": false}, {"id": 110, "address": "1515 Avenue S", "city": "Grand Prairie", "state": "TX", "_lat": 32.7459, "_lng": -97.0342, "sqft": 42031, "type": "Warehouse", "coverage": "no current requirement (confirmed)", "status": "none", "penalty": 0, "deadline": "", "proc": 5884, "dr": 0, "mon": 5884, "gas": 0, "elec": 5884, "q_gas": false, "q_elec": true, "q_dr": false, "util_dir": false, "util_min": null, "utility": "Oncor Electric Delivery [Energy Future Holdings Corp]", "at_risk": false}, {"id": 111, "address": "1555 Avenue S", "city": "Grand Prairie", "state": "TX", "_lat": 32.7459, "_lng": -97.0342, "sqft": 38576, "type": "Warehouse", "coverage": "no current requirement (confirmed)", "status": "none", "penalty": 0, "deadline": "", "proc": 5401, "dr": 0, "mon": 5401, "gas": 0, "elec": 5401, "q_gas": false, "q_elec": true, "q_dr": false, "util_dir": false, "util_min": null, "utility": "Oncor Electric Delivery [Energy Future Holdings Corp]", "at_risk": false}, {"id": 112, "address": "4620 B St NW", "city": "Auburn", "state": "WA", "_lat": 47.3073, "_lng": -122.2285, "sqft": 68555, "type": "Warehouse", "coverage": "active law (data ingested)", "status": "fined", "penalty": 75410, "deadline": "2026-12-31", "proc": 0, "dr": 0, "mon": 0, "gas": 0, "elec": 0, "q_gas": false, "q_elec": false, "q_dr": false, "util_dir": true, "util_min": 5, "utility": "Puget Sound Energy", "at_risk": true}, {"id": 113, "address": "931 W Bardin Rd", "city": "Arlington", "state": "TX", "_lat": 32.7357, "_lng": -97.1081, "sqft": 415800, "type": "Warehouse", "coverage": "no current requirement (confirmed)", "status": "none", "penalty": 0, "deadline": "", "proc": 58212, "dr": 2911, "mon": 61123, "gas": 0, "elec": 58212, "q_gas": false, "q_elec": true, "q_dr": true, "util_dir": false, "util_min": null, "utility": "Oncor Electric Delivery [Energy Future Holdings Corp]", "at_risk": false}, {"id": 114, "address": "1111 W Bardin Rd", "city": "Arlington", "state": "TX", "_lat": 32.7357, "_lng": -97.1081, "sqft": 425000, "type": "Warehouse", "coverage": "no current requirement (confirmed)", "status": "none", "penalty": 0, "deadline": "", "proc": 59500, "dr": 2975, "mon": 62475, "gas": 0, "elec": 59500, "q_gas": false, "q_elec": true, "q_dr": true, "util_dir": false, "util_min": null, "utility": "Oncor Electric Delivery [Energy Future Holdings Corp]", "at_risk": false}, {"id": 115, "address": "1 Beeman Rd", "city": "Northborough", "state": "MA", "_lat": 42.3195, "_lng": -71.6412, "sqft": 299149, "type": "Warehouse", "coverage": "no current requirement (confirmed)", "status": "none", "penalty": 0, "deadline": "", "proc": 59830, "dr": 2094, "mon": 61924, "gas": 17949, "elec": 41881, "q_gas": true, "q_elec": true, "q_dr": true, "util_dir": true, "util_min": 4, "utility": "National Grid", "at_risk": false}, {"id": 116, "address": "1700 Belle Meade Ct", "city": "Lawrenceville", "state": "GA", "_lat": 33.9562, "_lng": -83.988, "sqft": 125500, "type": "Warehouse", "coverage": "no current requirement (confirmed)", "status": "none", "penalty": 0, "deadline": "", "proc": 7530, "dr": 878, "mon": 8408, "gas": 7530, "elec": 0, "q_gas": true, "q_elec": false, "q_dr": true, "util_dir": true, "util_min": 5, "utility": "Georgia Power", "at_risk": false}, {"id": 117, "address": "2025 W Belt Line Rd", "city": "Carrollton", "state": "TX", "_lat": 32.9756, "_lng": -96.8899, "sqft": 203392, "type": "Warehouse", "coverage": "no current requirement (confirmed)", "status": "none", "penalty": 0, "deadline": "", "proc": 28475, "dr": 1424, "mon": 29899, "gas": 0, "elec": 28475, "q_gas": false, "q_elec": true, "q_dr": true, "util_dir": false, "util_min": null, "utility": "Denton County Elec Coop, Inc, Grayson-Collin Elec Coop, Inc", "at_risk": false}, {"id": 118, "address": "9715-9745 Bent Oak Dr", "city": "Houston", "state": "TX", "_lat": 29.7601, "_lng": -95.3701, "sqft": 87976, "type": "Warehouse", "coverage": "no current requirement (confirmed)", "status": "none", "penalty": 0, "deadline": "", "proc": 12317, "dr": 616, "mon": 12933, "gas": 0, "elec": 12317, "q_gas": false, "q_elec": true, "q_dr": true, "util_dir": false, "util_min": null, "utility": "CenterPoint Energy Houston Electric LLC", "at_risk": false}, {"id": 119, "address": "921 W Bethel Rd", "city": "Coppell", "state": "TX", "_lat": 32.9546, "_lng": -97.015, "sqft": 144000, "type": "Warehouse", "coverage": "no current requirement (confirmed)", "status": "none", "penalty": 0, "deadline": "", "proc": 20160, "dr": 1008, "mon": 21168, "gas": 0, "elec": 20160, "q_gas": false, "q_elec": true, "q_dr": true, "util_dir": false, "util_min": null, "utility": "Denton County Elec Coop, Inc", "at_risk": false}, {"id": 120, "address": "921 W Bethel Rd", "city": "Coppell", "state": "TX", "_lat": 32.9546, "_lng": -97.015, "sqft": 140000, "type": "Warehouse", "coverage": "no current requirement (confirmed)", "status": "none", "penalty": 0, "deadline": "", "proc": 19600, "dr": 980, "mon": 20580, "gas": 0, "elec": 19600, "q_gas": false, "q_elec": true, "q_dr": true, "util_dir": false, "util_min": null, "utility": "Denton County Elec Coop, Inc", "at_risk": false}, {"id": 121, "address": "1203 Bilter Rd", "city": "Aurora", "state": "IL", "_lat": 41.7606, "_lng": -88.3201, "sqft": 294740, "type": "Warehouse", "coverage": "no current requirement (confirmed)", "status": "none", "penalty": 0, "deadline": "", "proc": 58948, "dr": 2063, "mon": 61011, "gas": 17684, "elec": 41264, "q_gas": true, "q_elec": true, "q_dr": true, "util_dir": true, "util_min": 4, "utility": "Commonwealth Edison", "at_risk": false}, {"id": 122, "address": "501 Black Satchel Dr", "city": "Charlotte", "state": "NC", "_lat": 35.2271, "_lng": -80.8431, "sqft": 228800, "type": "Warehouse", "coverage": "monitored / pending", "status": "pending", "penalty": 0, "deadline": "", "proc": 0, "dr": 1602, "mon": 1602, "gas": 0, "elec": 0, "q_gas": false, "q_elec": false, "q_dr": true, "util_dir": false, "util_min": null, "utility": "Duke Energy Carolinas, LLC, EnergyUnited Elec Member Corp, Town of Huntersville - (NC)", "at_risk": false}, {"id": 123, "address": "7930 Blankenship Dr", "city": "Houston", "state": "TX", "_lat": 29.7601, "_lng": -95.3701, "sqft": 64666, "type": "Warehouse", "coverage": "no current requirement (confirmed)", "status": "none", "penalty": 0, "deadline": "", "proc": 9053, "dr": 0, "mon": 9053, "gas": 0, "elec": 9053, "q_gas": false, "q_elec": true, "q_dr": false, "util_dir": false, "util_min": null, "utility": "CenterPoint Energy Houston Electric LLC", "at_risk": false}, {"id": 124, "address": "6025-6035 Boat Rock Blvd SW", "city": "Atlanta", "state": "GA", "_lat": 33.749, "_lng": -84.388, "sqft": 75671, "type": "Warehouse", "coverage": "active law (data ingested)", "status": "fined", "penalty": 750, "deadline": "2026-12-31", "proc": 4540, "dr": 530, "mon": 5070, "gas": 4540, "elec": 0, "q_gas": true, "q_elec": false, "q_dr": true, "util_dir": true, "util_min": 5, "utility": "Georgia Power", "at_risk": true}, {"id": 125, "address": "6054 Boat Rock Blvd SW", "city": "Atlanta", "state": "GA", "_lat": 33.749, "_lng": -84.388, "sqft": 41163, "type": "Warehouse", "coverage": "active law (data ingested)", "status": "fined", "penalty": 750, "deadline": "2026-12-31", "proc": 2470, "dr": 0, "mon": 2470, "gas": 2470, "elec": 0, "q_gas": true, "q_elec": false, "q_dr": false, "util_dir": true, "util_min": 5, "utility": "Georgia Power", "at_risk": true}, {"id": 126, "address": "6058 Boat Rock Blvd SW", "city": "Atlanta", "state": "GA", "_lat": 33.749, "_lng": -84.388, "sqft": 22432, "type": "Warehouse", "coverage": "active law (data ingested)", "status": "fined", "penalty": 750, "deadline": "2026-12-31", "proc": 1346, "dr": 0, "mon": 1346, "gas": 1346, "elec": 0, "q_gas": true, "q_elec": false, "q_dr": false, "util_dir": true, "util_min": 5, "utility": "Georgia Power", "at_risk": true}, {"id": 127, "address": "1685 Boggs Rd", "city": "Duluth", "state": "GA", "_lat": 34.0029, "_lng": -84.1446, "sqft": 164008, "type": "Warehouse", "coverage": "no current requirement (confirmed)", "status": "none", "penalty": 0, "deadline": "", "proc": 9840, "dr": 1148, "mon": 10988, "gas": 9840, "elec": 0, "q_gas": true, "q_elec": false, "q_dr": true, "util_dir": true, "util_min": 5, "utility": "Georgia Power", "at_risk": false}, {"id": 128, "address": "6615 W Boston St", "city": "Chandler", "state": "AZ", "_lat": 33.3062, "_lng": -111.8413, "sqft": 96000, "type": "Warehouse", "coverage": "no current requirement (confirmed)", "status": "none", "penalty": 0, "deadline": "", "proc": 0, "dr": 672, "mon": 672, "gas": 0, "elec": 0, "q_gas": false, "q_elec": false, "q_dr": true, "util_dir": false, "util_min": null, "utility": "Salt River Project", "at_risk": false}, {"id": 129, "address": "16310 Bratton Ln", "city": "Austin", "state": "TX", "_lat": 30.2672, "_lng": -97.7431, "sqft": 99200, "type": "Warehouse", "coverage": "no current requirement (confirmed)", "status": "none", "penalty": 0, "deadline": "", "proc": 13888, "dr": 694, "mon": 14582, "gas": 0, "elec": 13888, "q_gas": false, "q_elec": true, "q_dr": true, "util_dir": true, "util_min": 4, "utility": "Austin Energy", "at_risk": false}, {"id": 130, "address": "16310 Bratton Ln", "city": "Austin", "state": "TX", "_lat": 30.2672, "_lng": -97.7431, "sqft": 99200, "type": "Warehouse", "coverage": "no current requirement (confirmed)", "status": "none", "penalty": 0, "deadline": "", "proc": 13888, "dr": 694, "mon": 14582, "gas": 0, "elec": 13888, "q_gas": false, "q_elec": true, "q_dr": true, "util_dir": true, "util_min": 4, "utility": "Austin Energy", "at_risk": false}, {"id": 131, "address": "16310 Bratton Ln", "city": "Austin", "state": "TX", "_lat": 30.2672, "_lng": -97.7431, "sqft": 51200, "type": "Warehouse", "coverage": "no current requirement (confirmed)", "status": "none", "penalty": 0, "deadline": "", "proc": 7168, "dr": 0, "mon": 7168, "gas": 0, "elec": 7168, "q_gas": false, "q_elec": true, "q_dr": false, "util_dir": true, "util_min": 4, "utility": "Austin Energy", "at_risk": false}, {"id": 132, "address": "488-498 Bridgestone Pky", "city": "Lebanon", "state": "TN", "_lat": 36.2081, "_lng": -86.2911, "sqft": 457073, "type": "Warehouse", "coverage": "monitored / pending", "status": "pending", "penalty": 0, "deadline": "", "proc": 0, "dr": 3200, "mon": 3200, "gas": 0, "elec": 0, "q_gas": false, "q_elec": false, "q_dr": true, "util_dir": false, "util_min": null, "utility": "Middle Tennessee E M C, Upper Cumberland E M C", "at_risk": false}, {"id": 133, "address": "610 Bridgestone Pky", "city": "Lebanon", "state": "TN", "_lat": 36.2081, "_lng": -86.2911, "sqft": 277672, "type": "Warehouse", "coverage": "monitored / pending", "status": "pending", "penalty": 0, "deadline": "", "proc": 0, "dr": 1944, "mon": 1944, "gas": 0, "elec": 0, "q_gas": false, "q_elec": false, "q_dr": true, "util_dir": false, "util_min": null, "utility": "Middle Tennessee E M C, Upper Cumberland E M C", "at_risk": false}, {"id": 134, "address": "1530 Broadway Ave", "city": "Braselton", "state": "GA", "_lat": 34.1098, "_lng": -83.7963, "sqft": 234133, "type": "Warehouse", "coverage": "no current requirement (confirmed)", "status": "none", "penalty": 0, "deadline": "", "proc": 14048, "dr": 1639, "mon": 15687, "gas": 14048, "elec": 0, "q_gas": true, "q_elec": false, "q_dr": true, "util_dir": false, "util_min": null, "utility": "Jackson Electric Member Corp - (GA)", "at_risk": false}, {"id": 135, "address": "23650 Brodiaea Ave", "city": "Moreno Valley", "state": "CA", "_lat": 33.9425, "_lng": -117.2297, "sqft": 130002, "type": "Warehouse", "coverage": "active law (data ingested)", "status": "fined", "penalty": 6250, "deadline": "", "proc": 0, "dr": 910, "mon": 910, "gas": 0, "elec": 0, "q_gas": false, "q_elec": false, "q_dr": true, "util_dir": true, "util_min": 3, "utility": "Southern Cal Gas; Southern California Edison", "at_risk": true}, {"id": 136, "address": "23900 Brodiaea Ave", "city": "Moreno Valley", "state": "CA", "_lat": 33.9425, "_lng": -117.2297, "sqft": 104282, "type": "Warehouse", "coverage": "active law (data ingested)", "status": "fined", "penalty": 6250, "deadline": "", "proc": 0, "dr": 730, "mon": 730, "gas": 0, "elec": 0, "q_gas": false, "q_elec": false, "q_dr": true, "util_dir": true, "util_min": 3, "utility": "Southern Cal Gas; Southern California Edison", "at_risk": true}, {"id": 137, "address": "6303-6323 Brookhill Dr", "city": "Houston", "state": "TX", "_lat": 29.7601, "_lng": -95.3701, "sqft": 123534, "type": "Warehouse", "coverage": "no current requirement (confirmed)", "status": "none", "penalty": 0, "deadline": "", "proc": 17295, "dr": 865, "mon": 18160, "gas": 0, "elec": 17295, "q_gas": false, "q_elec": true, "q_dr": true, "util_dir": false, "util_min": null, "utility": "CenterPoint Energy Houston Electric LLC", "at_risk": false}, {"id": 138, "address": "4747 W Buckeye Rd", "city": "Phoenix", "state": "AZ", "_lat": 33.4484, "_lng": -112.074, "sqft": 376760, "type": "Warehouse", "coverage": "no current requirement (confirmed)", "status": "none", "penalty": 0, "deadline": "", "proc": 0, "dr": 2637, "mon": 2637, "gas": 0, "elec": 0, "q_gas": false, "q_elec": false, "q_dr": true, "util_dir": false, "util_min": null, "utility": "Salt River Project", "at_risk": false}, {"id": 139, "address": "4925 Bulls Bay Hwy", "city": "Jacksonville", "state": "FL", "_lat": 30.3322, "_lng": -81.6557, "sqft": 197164, "type": "Warehouse", "coverage": "no current requirement (confirmed)", "status": "none", "penalty": 0, "deadline": "", "proc": 0, "dr": 1380, "mon": 1380, "gas": 0, "elec": 0, "q_gas": false, "q_elec": false, "q_dr": true, "util_dir": false, "util_min": null, "utility": "Florida Power & Light Co, JEA, Okefenoke Rural El Member Corp", "at_risk": false}, {"id": 140, "address": "5701-5713 Business Park", "city": "San Antonio", "state": "TX", "_lat": 29.4241, "_lng": -98.4936, "sqft": 112000, "type": "Warehouse", "coverage": "no current requirement (confirmed)", "status": "none", "penalty": 0, "deadline": "", "proc": 15680, "dr": 784, "mon": 16464, "gas": 0, "elec": 15680, "q_gas": false, "q_elec": true, "q_dr": true, "util_dir": false, "util_min": null, "utility": "City of San Antonio - (TX)", "at_risk": false}, {"id": 141, "address": "23400 Cactus Ave", "city": "Moreno Valley", "state": "CA", "_lat": 33.9425, "_lng": -117.2297, "sqft": 1280446, "type": "Warehouse", "coverage": "active law (data ingested)", "status": "fined", "penalty": 6250, "deadline": "", "proc": 0, "dr": 8963, "mon": 8963, "gas": 0, "elec": 0, "q_gas": false, "q_elec": false, "q_dr": true, "util_dir": true, "util_min": 3, "utility": "Southern Cal Gas; Southern California Edison", "at_risk": true}, {"id": 142, "address": "23700 Cactus Ave", "city": "Moreno Valley", "state": "CA", "_lat": 33.9425, "_lng": -117.2297, "sqft": 532926, "type": "Warehouse", "coverage": "active law (data ingested)", "status": "fined", "penalty": 6250, "deadline": "", "proc": 0, "dr": 3730, "mon": 3730, "gas": 0, "elec": 0, "q_gas": false, "q_elec": false, "q_dr": true, "util_dir": true, "util_min": 3, "utility": "Southern Cal Gas; Southern California Edison", "at_risk": true}, {"id": 143, "address": "4500 Cambridge Rd", "city": "Fort Worth", "state": "TX", "_lat": 32.7555, "_lng": -97.3308, "sqft": 228674, "type": "Warehouse", "coverage": "no current requirement (confirmed)", "status": "none", "penalty": 0, "deadline": "", "proc": 32014, "dr": 1601, "mon": 33615, "gas": 0, "elec": 32014, "q_gas": false, "q_elec": true, "q_dr": true, "util_dir": false, "util_min": null, "utility": "Oncor Electric Delivery [Energy Future Holdings Corp]", "at_risk": false}, {"id": 144, "address": "6037 Campus Dr", "city": "Fort Worth", "state": "TX", "_lat": 32.7555, "_lng": -97.3308, "sqft": 249479, "type": "Warehouse", "coverage": "no current requirement (confirmed)", "status": "none", "penalty": 0, "deadline": "", "proc": 34927, "dr": 1746, "mon": 36673, "gas": 0, "elec": 34927, "q_gas": false, "q_elec": true, "q_dr": true, "util_dir": false, "util_min": null, "utility": "Oncor Electric Delivery [Energy Future Holdings Corp]", "at_risk": false}, {"id": 145, "address": "6101 Campus Dr", "city": "Fort Worth", "state": "TX", "_lat": 32.7555, "_lng": -97.3308, "sqft": 158750, "type": "Warehouse", "coverage": "no current requirement (confirmed)", "status": "none", "penalty": 0, "deadline": "", "proc": 22225, "dr": 1111, "mon": 23336, "gas": 0, "elec": 22225, "q_gas": false, "q_elec": true, "q_dr": true, "util_dir": false, "util_min": null, "utility": "Oncor Electric Delivery [Energy Future Holdings Corp]", "at_risk": false}, {"id": 146, "address": "2425 Carter Dr", "city": "Carrollton", "state": "TX", "_lat": 32.9756, "_lng": -96.8899, "sqft": 91000, "type": "Warehouse", "coverage": "no current requirement (confirmed)", "status": "none", "penalty": 0, "deadline": "", "proc": 12740, "dr": 637, "mon": 13377, "gas": 0, "elec": 12740, "q_gas": false, "q_elec": true, "q_dr": true, "util_dir": false, "util_min": null, "utility": "Denton County Elec Coop, Inc, Grayson-Collin Elec Coop, Inc", "at_risk": false}, {"id": 147, "address": "5015 Citation Dr", "city": "Memphis", "state": "TN", "_lat": 35.1495, "_lng": -90.049, "sqft": 500000, "type": "Warehouse", "coverage": "monitored / pending", "status": "pending", "penalty": 0, "deadline": "", "proc": 0, "dr": 3500, "mon": 3500, "gas": 0, "elec": 0, "q_gas": false, "q_elec": false, "q_dr": true, "util_dir": false, "util_min": null, "utility": "City of Memphis - (TN), Entergy Arkansas Inc", "at_risk": false}, {"id": 148, "address": "8801 Citation Rd", "city": "Essex", "state": "MD", "_lat": 39.3037, "_lng": -76.4497, "sqft": 156797, "type": "Warehouse", "coverage": "active law (data ingested)", "status": "fined", "penalty": 23520, "deadline": "2025-12-31", "proc": 31360, "dr": 1098, "mon": 32458, "gas": 9408, "elec": 21952, "q_gas": true, "q_elec": true, "q_dr": true, "util_dir": true, "util_min": 5, "utility": "Baltimore Gas & Electric", "at_risk": true}, {"id": 149, "address": "1106 Citizens Pkwy", "city": "Morrow", "state": "GA", "_lat": 33.5807, "_lng": -84.3391, "sqft": 206190, "type": "Warehouse", "coverage": "no current requirement (confirmed)", "status": "none", "penalty": 0, "deadline": "", "proc": 12371, "dr": 1443, "mon": 13814, "gas": 12371, "elec": 0, "q_gas": true, "q_elec": false, "q_dr": true, "util_dir": true, "util_min": 5, "utility": "Georgia Power", "at_risk": false}, {"id": 150, "address": "7451 Coca Cola Dr", "city": "Hanover", "state": "MD", "_lat": 39.1811, "_lng": -76.7194, "sqft": 50850, "type": "Warehouse", "coverage": "active law (data ingested)", "status": "fined", "penalty": 7628, "deadline": "2025-12-31", "proc": 10170, "dr": 0, "mon": 10170, "gas": 3051, "elec": 7119, "q_gas": true, "q_elec": true, "q_dr": false, "util_dir": true, "util_min": 5, "utility": "Baltimore Gas & Electric", "at_risk": true}, {"id": 151, "address": "4801 S Collins St", "city": "Arlington", "state": "TX", "_lat": 32.7357, "_lng": -97.1081, "sqft": 55680, "type": "Warehouse", "coverage": "no current requirement (confirmed)", "status": "none", "penalty": 0, "deadline": "", "proc": 7795, "dr": 0, "mon": 7795, "gas": 0, "elec": 7795, "q_gas": false, "q_elec": true, "q_dr": false, "util_dir": false, "util_min": null, "utility": "Oncor Electric Delivery [Energy Future Holdings Corp]", "at_risk": false}, {"id": 152, "address": "4851 S Collins St", "city": "Arlington", "state": "TX", "_lat": 32.7357, "_lng": -97.1081, "sqft": 95040, "type": "Warehouse", "coverage": "no current requirement (confirmed)", "status": "none", "penalty": 0, "deadline": "", "proc": 13306, "dr": 665, "mon": 13971, "gas": 0, "elec": 13306, "q_gas": false, "q_elec": true, "q_dr": true, "util_dir": false, "util_min": null, "utility": "Oncor Electric Delivery [Energy Future Holdings Corp]", "at_risk": false}, {"id": 153, "address": "1025 Columbia Rd", "city": "Plainfield", "state": "IN", "_lat": 39.7042, "_lng": -86.3994, "sqft": 220000, "type": "Warehouse", "coverage": "no current requirement (confirmed)", "status": "none", "penalty": 0, "deadline": "", "proc": 0, "dr": 1540, "mon": 1540, "gas": 0, "elec": 0, "q_gas": false, "q_elec": false, "q_dr": true, "util_dir": false, "util_min": null, "utility": "Duke Energy Indiana, LLC, Hendricks County Rural E M C, Indianapolis Power & Light Co", "at_risk": false}, {"id": 154, "address": "2109 Columbia Park Dr", "city": "Edgewood", "state": "MD", "_lat": 39.4176, "_lng": -76.2941, "sqft": 107070, "type": "Warehouse", "coverage": "active law (data ingested)", "status": "fined", "penalty": 16060, "deadline": "2025-12-31", "proc": 21414, "dr": 749, "mon": 22163, "gas": 6424, "elec": 14990, "q_gas": true, "q_elec": true, "q_dr": true, "util_dir": true, "util_min": 5, "utility": "Baltimore Gas & Electric", "at_risk": true}, {"id": 155, "address": "9230 E Columbus Dr", "city": "Tampa", "state": "FL", "_lat": 27.9506, "_lng": -82.4572, "sqft": 171448, "type": "Warehouse", "coverage": "no current requirement (confirmed)", "status": "none", "penalty": 0, "deadline": "", "proc": 0, "dr": 1200, "mon": 1200, "gas": 0, "elec": 0, "q_gas": false, "q_elec": false, "q_dr": true, "util_dir": false, "util_min": null, "utility": "Tampa Electric Co", "at_risk": false}, {"id": 156, "address": "9250 E Columbus Dr", "city": "Tampa", "state": "FL", "_lat": 27.9506, "_lng": -82.4572, "sqft": 341890, "type": "Warehouse", "coverage": "no current requirement (confirmed)", "status": "none", "penalty": 0, "deadline": "", "proc": 0, "dr": 2393, "mon": 2393, "gas": 0, "elec": 0, "q_gas": false, "q_elec": false, "q_dr": true, "util_dir": false, "util_min": null, "utility": "Tampa Electric Co", "at_risk": false}, {"id": 157, "address": "9270 E Columbus Dr", "city": "Tampa", "state": "FL", "_lat": 27.9506, "_lng": -82.4572, "sqft": 208741, "type": "Warehouse", "coverage": "no current requirement (confirmed)", "status": "none", "penalty": 0, "deadline": "", "proc": 0, "dr": 1461, "mon": 1461, "gas": 0, "elec": 0, "q_gas": false, "q_elec": false, "q_dr": true, "util_dir": false, "util_min": null, "utility": "Tampa Electric Co", "at_risk": false}, {"id": 158, "address": "3041 Commerce Way", "city": "Atlanta", "state": "GA", "_lat": 33.749, "_lng": -84.388, "sqft": 71492, "type": "Warehouse", "coverage": "active law (data ingested)", "status": "fined", "penalty": 750, "deadline": "2026-12-31", "proc": 4290, "dr": 0, "mon": 4290, "gas": 4290, "elec": 0, "q_gas": true, "q_elec": false, "q_dr": false, "util_dir": true, "util_min": 5, "utility": "Georgia Power", "at_risk": true}, {"id": 159, "address": "1790 Commerce Park Dr", "city": "El Paso", "state": "TX", "_lat": 31.7619, "_lng": -106.485, "sqft": 120000, "type": "Warehouse", "coverage": "no current requirement (confirmed)", "status": "none", "penalty": 0, "deadline": "", "proc": 16800, "dr": 840, "mon": 17640, "gas": 0, "elec": 16800, "q_gas": false, "q_elec": true, "q_dr": true, "util_dir": false, "util_min": null, "utility": "El Paso Electric Co", "at_risk": false}, {"id": 160, "address": "5505 E Concours", "city": "Ontario", "state": "CA", "_lat": 34.0633, "_lng": -117.6509, "sqft": 102878, "type": "Warehouse", "coverage": "active law (data ingested)", "status": "fined", "penalty": 6250, "deadline": "", "proc": 0, "dr": 720, "mon": 720, "gas": 0, "elec": 0, "q_gas": false, "q_elec": false, "q_dr": true, "util_dir": true, "util_min": 3, "utility": "Southern Cal Gas; Southern California Edison", "at_risk": true}, {"id": 161, "address": "109 Connecticut Dr", "city": "Burlington", "state": "NJ", "_lat": 40.0798, "_lng": -74.8607, "sqft": 40000, "type": "Warehouse", "coverage": "active law (data ingested)", "status": "fined", "penalty": 3000, "deadline": "2026-07-01", "proc": 8000, "dr": 0, "mon": 8000, "gas": 2400, "elec": 5600, "q_gas": true, "q_elec": true, "q_dr": false, "util_dir": true, "util_min": 4, "utility": "Public Service Electric and Gas", "at_risk": true}, {"id": 162, "address": "4850 Constellation Dr", "city": "White Bear Township", "state": "MN", "_lat": 45.0894, "_lng": -93.0044, "sqft": 110152, "type": "Warehouse", "coverage": "no current requirement (confirmed)", "status": "none", "penalty": 0, "deadline": "", "proc": 0, "dr": 771, "mon": 771, "gas": 0, "elec": 0, "q_gas": false, "q_elec": false, "q_dr": true, "util_dir": true, "util_min": 4, "utility": "Xcel Energy", "at_risk": false}, {"id": 163, "address": "2043 Corporate Ln", "city": "Naperville", "state": "IL", "_lat": 41.7508, "_lng": -88.1535, "sqft": 304041, "type": "Warehouse", "coverage": "no current requirement (confirmed)", "status": "none", "penalty": 0, "deadline": "", "proc": 60808, "dr": 2128, "mon": 62936, "gas": 18242, "elec": 42566, "q_gas": true, "q_elec": true, "q_dr": true, "util_dir": true, "util_min": 4, "utility": "Commonwealth Edison", "at_risk": false}, {"id": 164, "address": "2945 W Corporate Lakes Blvd", "city": "Weston", "state": "FL", "_lat": 26.1004, "_lng": -80.3998, "sqft": 128840, "type": "Warehouse", "coverage": "no current requirement (confirmed)", "status": "none", "penalty": 0, "deadline": "", "proc": 0, "dr": 902, "mon": 902, "gas": 0, "elec": 0, "q_gas": false, "q_elec": false, "q_dr": true, "util_dir": false, "util_min": null, "utility": "Florida Power & Light Co", "at_risk": false}, {"id": 165, "address": "2955 W Corporate Lakes Blvd", "city": "Weston", "state": "FL", "_lat": 26.1004, "_lng": -80.3998, "sqft": 267250, "type": "Warehouse", "coverage": "no current requirement (confirmed)", "status": "none", "penalty": 0, "deadline": "", "proc": 0, "dr": 1871, "mon": 1871, "gas": 0, "elec": 0, "q_gas": false, "q_elec": false, "q_dr": true, "util_dir": false, "util_min": null, "utility": "Florida Power & Light Co", "at_risk": false}, {"id": 166, "address": "20671 Corsair Blvd", "city": "Hayward", "state": "CA", "_lat": 37.6688, "_lng": -122.0808, "sqft": 31970, "type": "Warehouse", "coverage": "no current requirement (confirmed)", "status": "none", "penalty": 0, "deadline": "", "proc": 0, "dr": 0, "mon": 0, "gas": 0, "elec": 0, "q_gas": false, "q_elec": false, "q_dr": false, "util_dir": true, "util_min": 3, "utility": "Pacific Gas & Electric", "at_risk": false}, {"id": 167, "address": "1485 Couchville Pike", "city": "Mount Juliet", "state": "TN", "_lat": 36.2001, "_lng": -86.5189, "sqft": 670680, "type": "Warehouse", "coverage": "monitored / pending", "status": "pending", "penalty": 0, "deadline": "", "proc": 0, "dr": 4695, "mon": 4695, "gas": 0, "elec": 0, "q_gas": false, "q_elec": false, "q_dr": true, "util_dir": false, "util_min": null, "utility": "Cumberland Elec Member Corp, Middle Tennessee E M C, Nashville Electric Service", "at_risk": false}, {"id": 168, "address": "2067 S County Line Rd", "city": "Plant City", "state": "FL", "_lat": 28.0186, "_lng": -82.1131, "sqft": 169511, "type": "Warehouse", "coverage": "no current requirement (confirmed)", "status": "none", "penalty": 0, "deadline": "", "proc": 0, "dr": 1187, "mon": 1187, "gas": 0, "elec": 0, "q_gas": false, "q_elec": false, "q_dr": true, "util_dir": false, "util_min": null, "utility": "City of Lakeland - (FL), Tampa Electric Co", "at_risk": false}, {"id": 169, "address": "101 E Crossroads Pky", "city": "Bolingbrook", "state": "IL", "_lat": 41.6987, "_lng": -88.0684, "sqft": 283630, "type": "Warehouse", "coverage": "no current requirement (confirmed)", "status": "none", "penalty": 0, "deadline": "", "proc": 56726, "dr": 1985, "mon": 58711, "gas": 17018, "elec": 39708, "q_gas": true, "q_elec": true, "q_dr": true, "util_dir": true, "util_min": 4, "utility": "Commonwealth Edison", "at_risk": false}, {"id": 170, "address": "115 E Crossroads Pky", "city": "Bolingbrook", "state": "IL", "_lat": 41.6987, "_lng": -88.0684, "sqft": 284747, "type": "Warehouse", "coverage": "no current requirement (confirmed)", "status": "none", "penalty": 0, "deadline": "", "proc": 56950, "dr": 1993, "mon": 58943, "gas": 17085, "elec": 39865, "q_gas": true, "q_elec": true, "q_dr": true, "util_dir": true, "util_min": 4, "utility": "Commonwealth Edison", "at_risk": false}, {"id": 171, "address": "575 W Crossroads Pky", "city": "Bolingbrook", "state": "IL", "_lat": 41.6987, "_lng": -88.0684, "sqft": 145000, "type": "Warehouse", "coverage": "no current requirement (confirmed)", "status": "none", "penalty": 0, "deadline": "", "proc": 29000, "dr": 1015, "mon": 30015, "gas": 8700, "elec": 20300, "q_gas": true, "q_elec": true, "q_dr": true, "util_dir": true, "util_min": 4, "utility": "Commonwealth Edison", "at_risk": false}, {"id": 172, "address": "3600 E Dale Ave", "city": "Henderson", "state": "NV", "_lat": 36.0395, "_lng": -114.9817, "sqft": 75349, "type": "Warehouse", "coverage": "monitored / pending", "status": "pending", "penalty": 0, "deadline": "", "proc": 0, "dr": 527, "mon": 527, "gas": 0, "elec": 0, "q_gas": false, "q_elec": false, "q_dr": true, "util_dir": true, "util_min": null, "utility": "Nevada Power Co", "at_risk": false}, {"id": 173, "address": "3650 E Dale Ave", "city": "Henderson", "state": "NV", "_lat": 36.0395, "_lng": -114.9817, "sqft": 75025, "type": "Warehouse", "coverage": "monitored / pending", "status": "pending", "penalty": 0, "deadline": "", "proc": 0, "dr": 525, "mon": 525, "gas": 0, "elec": 0, "q_gas": false, "q_elec": false, "q_dr": true, "util_dir": true, "util_min": null, "utility": "Nevada Power Co", "at_risk": false}, {"id": 174, "address": "1000 Davey Rd", "city": "Woodridge", "state": "IL", "_lat": 41.7458, "_lng": -88.0384, "sqft": 264183, "type": "Warehouse", "coverage": "no current requirement (confirmed)", "status": "none", "penalty": 0, "deadline": "", "proc": 52837, "dr": 1849, "mon": 54686, "gas": 15851, "elec": 36986, "q_gas": true, "q_elec": true, "q_dr": true, "util_dir": true, "util_min": 4, "utility": "Commonwealth Edison", "at_risk": false}, {"id": 175, "address": "230 Deen Still Rd", "city": "Davenport", "state": "FL", "_lat": 28.1611, "_lng": -81.6017, "sqft": 188939, "type": "Warehouse", "coverage": "no current requirement (confirmed)", "status": "none", "penalty": 0, "deadline": "", "proc": 0, "dr": 1323, "mon": 1323, "gas": 0, "elec": 0, "q_gas": false, "q_elec": false, "q_dr": true, "util_dir": false, "util_min": null, "utility": "Duke Energy Florida, LLC, Sumter Electric Coop, Inc, Tampa Electric Co", "at_risk": false}, {"id": 176, "address": "240 Deen Still Rd", "city": "Davenport", "state": "FL", "_lat": 28.1611, "_lng": -81.6017, "sqft": 66401, "type": "Warehouse", "coverage": "no current requirement (confirmed)", "status": "none", "penalty": 0, "deadline": "", "proc": 0, "dr": 0, "mon": 0, "gas": 0, "elec": 0, "q_gas": false, "q_elec": false, "q_dr": false, "util_dir": false, "util_min": null, "utility": "Duke Energy Florida, LLC, Sumter Electric Coop, Inc, Tampa Electric Co", "at_risk": false}, {"id": 177, "address": "701 Delran Pky", "city": "Delran", "state": "NJ", "_lat": 40.0146, "_lng": -74.9457, "sqft": 66490, "type": "Warehouse", "coverage": "active law (data ingested)", "status": "fined", "penalty": 3000, "deadline": "2026-07-01", "proc": 13298, "dr": 0, "mon": 13298, "gas": 3989, "elec": 9309, "q_gas": true, "q_elec": true, "q_dr": false, "util_dir": true, "util_min": 4, "utility": "Public Service Electric and Gas", "at_risk": true}, {"id": 178, "address": "7350 Denny St", "city": "Houston", "state": "TX", "_lat": 29.7601, "_lng": -95.3701, "sqft": 185507, "type": "Warehouse", "coverage": "no current requirement (confirmed)", "status": "none", "penalty": 0, "deadline": "", "proc": 25971, "dr": 1299, "mon": 27270, "gas": 0, "elec": 25971, "q_gas": false, "q_elec": true, "q_dr": true, "util_dir": false, "util_min": null, "utility": "CenterPoint Energy Houston Electric LLC", "at_risk": false}, {"id": 179, "address": "2380 Diehl Rd", "city": "Aurora", "state": "IL", "_lat": 41.7606, "_lng": -88.3201, "sqft": 304482, "type": "Warehouse", "coverage": "no current requirement (confirmed)", "status": "none", "penalty": 0, "deadline": "", "proc": 60896, "dr": 2131, "mon": 63027, "gas": 18269, "elec": 42627, "q_gas": true, "q_elec": true, "q_dr": true, "util_dir": true, "util_min": 4, "utility": "Commonwealth Edison", "at_risk": false}, {"id": 180, "address": "2580 Diehl Rd", "city": "Aurora", "state": "IL", "_lat": 41.7606, "_lng": -88.3201, "sqft": 64477, "type": "Warehouse", "coverage": "no current requirement (confirmed)", "status": "none", "penalty": 0, "deadline": "", "proc": 12896, "dr": 0, "mon": 12896, "gas": 3869, "elec": 9027, "q_gas": true, "q_elec": true, "q_dr": false, "util_dir": true, "util_min": 4, "utility": "Commonwealth Edison", "at_risk": false}, {"id": 181, "address": "4201-4221 Director Dr", "city": "San Antonio", "state": "TX", "_lat": 29.4241, "_lng": -98.4936, "sqft": 96030, "type": "Warehouse", "coverage": "no current requirement (confirmed)", "status": "none", "penalty": 0, "deadline": "", "proc": 13444, "dr": 672, "mon": 14116, "gas": 0, "elec": 13444, "q_gas": false, "q_elec": true, "q_dr": true, "util_dir": false, "util_min": null, "utility": "City of San Antonio - (TX)", "at_risk": false}, {"id": 182, "address": "4223-4239 Director Dr", "city": "San Antonio", "state": "TX", "_lat": 29.4241, "_lng": -98.4936, "sqft": 91845, "type": "Warehouse", "coverage": "no current requirement (confirmed)", "status": "none", "penalty": 0, "deadline": "", "proc": 12858, "dr": 643, "mon": 13501, "gas": 0, "elec": 12858, "q_gas": false, "q_elec": true, "q_dr": true, "util_dir": false, "util_min": null, "utility": "City of San Antonio - (TX)", "at_risk": false}, {"id": 183, "address": "3350 W Directors Row", "city": "Salt Lake City", "state": "UT", "_lat": 40.7608, "_lng": -111.891, "sqft": 31418, "type": "Warehouse", "coverage": "active law (data ingested)", "status": "fined", "penalty": 500, "deadline": "2027-05-01", "proc": 0, "dr": 0, "mon": 0, "gas": 0, "elec": 0, "q_gas": false, "q_elec": false, "q_dr": false, "util_dir": true, "util_min": 5, "utility": "Dominion Energy (formerly Questar Gas); Rocky Mountain Power", "at_risk": true}, {"id": 184, "address": "4500 Dunham St", "city": "Los Angeles", "state": "CA", "_lat": 34.0522, "_lng": -118.2437, "sqft": 73294, "type": "Warehouse", "coverage": "active law (data ingested)", "status": "fined", "penalty": 6250, "deadline": "", "proc": 0, "dr": 0, "mon": 0, "gas": 0, "elec": 0, "q_gas": false, "q_elec": false, "q_dr": false, "util_dir": true, "util_min": 3, "utility": "Southern Cal Gas; Southern California Edison", "at_risk": true}, {"id": 185, "address": "8404 East Fwy", "city": "Houston", "state": "TX", "_lat": 29.7601, "_lng": -95.3701, "sqft": 176201, "type": "Warehouse", "coverage": "no current requirement (confirmed)", "status": "none", "penalty": 0, "deadline": "", "proc": 24668, "dr": 1233, "mon": 25901, "gas": 0, "elec": 24668, "q_gas": false, "q_elec": true, "q_dr": true, "util_dir": false, "util_min": null, "utility": "CenterPoint Energy Houston Electric LLC", "at_risk": false}, {"id": 186, "address": "9838-9858 East Fwy", "city": "Houston", "state": "TX", "_lat": 29.7601, "_lng": -95.3701, "sqft": 219243, "type": "Warehouse", "coverage": "no current requirement (confirmed)", "status": "none", "penalty": 0, "deadline": "", "proc": 30694, "dr": 1535, "mon": 32229, "gas": 0, "elec": 30694, "q_gas": false, "q_elec": true, "q_dr": true, "util_dir": false, "util_min": null, "utility": "CenterPoint Energy Houston Electric LLC", "at_risk": false}, {"id": 187, "address": "18210 Eastex Fwy", "city": "Humble", "state": "TX", "_lat": 29.9988, "_lng": -95.2622, "sqft": 685400, "type": "Warehouse", "coverage": "no current requirement (confirmed)", "status": "none", "penalty": 0, "deadline": "", "proc": 95956, "dr": 4798, "mon": 100754, "gas": 0, "elec": 95956, "q_gas": false, "q_elec": true, "q_dr": true, "util_dir": false, "util_min": null, "utility": "Entergy Texas Inc., Mid-South Electric Coop Assn", "at_risk": false}, {"id": 188, "address": "18860 Eastex Fwy", "city": "Humble", "state": "TX", "_lat": 29.9988, "_lng": -95.2622, "sqft": 80100, "type": "Warehouse", "coverage": "no current requirement (confirmed)", "status": "none", "penalty": 0, "deadline": "", "proc": 11214, "dr": 561, "mon": 11775, "gas": 0, "elec": 11214, "q_gas": false, "q_elec": true, "q_dr": true, "util_dir": false, "util_min": null, "utility": "Entergy Texas Inc., Mid-South Electric Coop Assn", "at_risk": false}, {"id": 189, "address": "18870 Eastex Fwy N", "city": "Humble", "state": "TX", "_lat": 29.9988, "_lng": -95.2622, "sqft": 159285, "type": "Warehouse", "coverage": "no current requirement (confirmed)", "status": "none", "penalty": 0, "deadline": "", "proc": 22300, "dr": 1115, "mon": 23415, "gas": 0, "elec": 22300, "q_gas": false, "q_elec": true, "q_dr": true, "util_dir": false, "util_min": null, "utility": "Entergy Texas Inc., Mid-South Electric Coop Assn", "at_risk": false}, {"id": 190, "address": "12008 Eastgate Blvd", "city": "Mount Juliet", "state": "TN", "_lat": 36.2001, "_lng": -86.5189, "sqft": 706500, "type": "Warehouse", "coverage": "monitored / pending", "status": "pending", "penalty": 0, "deadline": "", "proc": 0, "dr": 4946, "mon": 4946, "gas": 0, "elec": 0, "q_gas": false, "q_elec": false, "q_dr": true, "util_dir": false, "util_min": null, "utility": "Cumberland Elec Member Corp, Middle Tennessee E M C, Nashville Electric Service", "at_risk": false}, {"id": 191, "address": "12014 Eastgate Blvd", "city": "Mount Juliet", "state": "TN", "_lat": 36.2001, "_lng": -86.5189, "sqft": 480000, "type": "Warehouse", "coverage": "monitored / pending", "status": "pending", "penalty": 0, "deadline": "", "proc": 0, "dr": 3360, "mon": 3360, "gas": 0, "elec": 0, "q_gas": false, "q_elec": false, "q_dr": true, "util_dir": false, "util_min": null, "utility": "Cumberland Elec Member Corp, Middle Tennessee E M C, Nashville Electric Service", "at_risk": false}, {"id": 192, "address": "1180 Emma Oaks Trl", "city": "Lake Mary", "state": "FL", "_lat": 28.7589, "_lng": -81.3178, "sqft": 45340, "type": "Warehouse", "coverage": "no current requirement (confirmed)", "status": "none", "penalty": 0, "deadline": "", "proc": 0, "dr": 0, "mon": 0, "gas": 0, "elec": 0, "q_gas": false, "q_elec": false, "q_dr": false, "util_dir": false, "util_min": null, "utility": "Duke Energy Florida, LLC, Florida Power & Light Co", "at_risk": false}, {"id": 193, "address": "7603 Energy Pky", "city": "Curtis Bay", "state": "MD", "_lat": 39.2159, "_lng": -76.5636, "sqft": 274152, "type": "Warehouse", "coverage": "active law (data ingested)", "status": "fined", "penalty": 41123, "deadline": "2025-12-31", "proc": 54830, "dr": 1919, "mon": 56749, "gas": 16449, "elec": 38381, "q_gas": true, "q_elec": true, "q_dr": true, "util_dir": true, "util_min": 5, "utility": "Baltimore Gas & Electric", "at_risk": true}, {"id": 194, "address": "7621 Energy Pky", "city": "Curtis Bay", "state": "MD", "_lat": 39.2159, "_lng": -76.5636, "sqft": 222636, "type": "Warehouse", "coverage": "active law (data ingested)", "status": "fined", "penalty": 33395, "deadline": "2025-12-31", "proc": 44527, "dr": 1558, "mon": 46085, "gas": 13358, "elec": 31169, "q_gas": true, "q_elec": true, "q_dr": true, "util_dir": true, "util_min": 5, "utility": "Baltimore Gas & Electric", "at_risk": true}, {"id": 195, "address": "730 W Fairmont Dr", "city": "Tempe", "state": "AZ", "_lat": 33.4255, "_lng": -111.94, "sqft": 49951, "type": "Warehouse", "coverage": "no current requirement (confirmed)", "status": "none", "penalty": 0, "deadline": "", "proc": 0, "dr": 0, "mon": 0, "gas": 0, "elec": 0, "q_gas": false, "q_elec": false, "q_dr": false, "util_dir": false, "util_min": null, "utility": "Salt River Project", "at_risk": false}, {"id": 196, "address": "3575 Fairview Industrial Dr SE", "city": "Salem", "state": "OR", "_lat": 44.9429, "_lng": -123.0351, "sqft": 50779, "type": "Warehouse", "coverage": "no current requirement (confirmed)", "status": "none", "penalty": 0, "deadline": "", "proc": 0, "dr": 0, "mon": 0, "gas": 0, "elec": 0, "q_gas": false, "q_elec": false, "q_dr": false, "util_dir": false, "util_min": null, "utility": "Portland General Electric Co, Salem Electric - (OR)", "at_risk": false}, {"id": 197, "address": "3589 SE Fairview Industrial Dr", "city": "Salem", "state": "OR", "_lat": 44.9429, "_lng": -123.0351, "sqft": 15840, "type": "Warehouse", "coverage": "no current requirement (confirmed)", "status": "none", "penalty": 0, "deadline": "", "proc": 0, "dr": 0, "mon": 0, "gas": 0, "elec": 0, "q_gas": false, "q_elec": false, "q_dr": false, "util_dir": false, "util_min": null, "utility": "Portland General Electric Co, Salem Electric - (OR)", "at_risk": false}, {"id": 198, "address": "3502 Fancy Farms Rd", "city": "Plant City", "state": "FL", "_lat": 28.0186, "_lng": -82.1131, "sqft": 402206, "type": "Warehouse", "coverage": "no current requirement (confirmed)", "status": "none", "penalty": 0, "deadline": "", "proc": 0, "dr": 2815, "mon": 2815, "gas": 0, "elec": 0, "q_gas": false, "q_elec": false, "q_dr": true, "util_dir": false, "util_min": null, "utility": "City of Lakeland - (FL), Tampa Electric Co", "at_risk": false}, {"id": 199, "address": "3602 Fancy Farms Rd", "city": "Plant City", "state": "FL", "_lat": 28.0186, "_lng": -82.1131, "sqft": 402206, "type": "Warehouse", "coverage": "no current requirement (confirmed)", "status": "none", "penalty": 0, "deadline": "", "proc": 0, "dr": 2815, "mon": 2815, "gas": 0, "elec": 0, "q_gas": false, "q_elec": false, "q_dr": true, "util_dir": false, "util_min": null, "utility": "City of Lakeland - (FL), Tampa Electric Co", "at_risk": false}, {"id": 200, "address": "1180 N Flyer Way", "city": "Salt Lake City", "state": "UT", "_lat": 40.7608, "_lng": -111.891, "sqft": 31670, "type": "Warehouse", "coverage": "active law (data ingested)", "status": "fined", "penalty": 500, "deadline": "2027-05-01", "proc": 0, "dr": 0, "mon": 0, "gas": 0, "elec": 0, "q_gas": false, "q_elec": false, "q_dr": false, "util_dir": true, "util_min": 5, "utility": "Dominion Energy (formerly Questar Gas); Rocky Mountain Power", "at_risk": true}, {"id": 201, "address": "1250 N Flyer Way", "city": "Salt Lake City", "state": "UT", "_lat": 40.7608, "_lng": -111.891, "sqft": 303658, "type": "Warehouse", "coverage": "active law (data ingested)", "status": "fined", "penalty": 500, "deadline": "2027-05-01", "proc": 0, "dr": 2126, "mon": 2126, "gas": 0, "elec": 0, "q_gas": false, "q_elec": false, "q_dr": true, "util_dir": true, "util_min": 5, "utility": "Dominion Energy (formerly Questar Gas); Rocky Mountain Power", "at_risk": true}, {"id": 202, "address": "777 Freeport Pky", "city": "Coppell", "state": "TX", "_lat": 32.9546, "_lng": -97.015, "sqft": 13927, "type": "Warehouse", "coverage": "no current requirement (confirmed)", "status": "none", "penalty": 0, "deadline": "", "proc": 1950, "dr": 0, "mon": 1950, "gas": 0, "elec": 1950, "q_gas": false, "q_elec": true, "q_dr": false, "util_dir": false, "util_min": null, "utility": "Denton County Elec Coop, Inc", "at_risk": false}, {"id": 203, "address": "777 Freeport Pky", "city": "Coppell", "state": "TX", "_lat": 32.9546, "_lng": -97.015, "sqft": 13064, "type": "Warehouse", "coverage": "no current requirement (confirmed)", "status": "none", "penalty": 0, "deadline": "", "proc": 1829, "dr": 0, "mon": 1829, "gas": 0, "elec": 1829, "q_gas": false, "q_elec": true, "q_dr": false, "util_dir": false, "util_min": null, "utility": "Denton County Elec Coop, Inc", "at_risk": false}, {"id": 204, "address": "200 Freeway Dr", "city": "Blackwood", "state": "NJ", "_lat": 39.7987, "_lng": -75.0466, "sqft": 60550, "type": "Warehouse", "coverage": "active law (data ingested)", "status": "fined", "penalty": 3000, "deadline": "2026-07-01", "proc": 12110, "dr": 0, "mon": 12110, "gas": 3633, "elec": 8477, "q_gas": true, "q_elec": true, "q_dr": false, "util_dir": true, "util_min": 4, "utility": "Atlantic City Electric; Public Service Electric and Gas; South Jersey Gas", "at_risk": true}, {"id": 205, "address": "943 Gainesville Hwy", "city": "Buford", "state": "GA", "_lat": 34.1207, "_lng": -83.9924, "sqft": 236070, "type": "Warehouse", "coverage": "no current requirement (confirmed)", "status": "none", "penalty": 0, "deadline": "", "proc": 14164, "dr": 1652, "mon": 15816, "gas": 14164, "elec": 0, "q_gas": true, "q_elec": false, "q_dr": true, "util_dir": true, "util_min": 5, "utility": "Georgia Power", "at_risk": false}, {"id": 206, "address": "943 Gainesville Hwy", "city": "Buford", "state": "GA", "_lat": 34.1207, "_lng": -83.9924, "sqft": 166830, "type": "Warehouse", "coverage": "no current requirement (confirmed)", "status": "none", "penalty": 0, "deadline": "", "proc": 10010, "dr": 1168, "mon": 11178, "gas": 10010, "elec": 0, "q_gas": true, "q_elec": false, "q_dr": true, "util_dir": true, "util_min": 5, "utility": "Georgia Power", "at_risk": false}, {"id": 207, "address": "943 Gainesville Hwy", "city": "Buford", "state": "GA", "_lat": 34.1207, "_lng": -83.9924, "sqft": 209252, "type": "Warehouse", "coverage": "no current requirement (confirmed)", "status": "none", "penalty": 0, "deadline": "", "proc": 12555, "dr": 1465, "mon": 14020, "gas": 12555, "elec": 0, "q_gas": true, "q_elec": false, "q_dr": true, "util_dir": true, "util_min": 5, "utility": "Georgia Power", "at_risk": false}, {"id": 208, "address": "1780 Garvey Ave", "city": "Elsmere", "state": "KY", "_lat": 39.0089, "_lng": -84.6169, "sqft": 285443, "type": "Warehouse", "coverage": "no current requirement (confirmed)", "status": "none", "penalty": 0, "deadline": "", "proc": 0, "dr": 1998, "mon": 1998, "gas": 0, "elec": 0, "q_gas": false, "q_elec": false, "q_dr": true, "util_dir": false, "util_min": null, "utility": "Duke Energy Kentucky, Owen Electric Coop Inc", "at_risk": false}, {"id": 209, "address": "2121 Gateway Dr", "city": "Clayton", "state": "IN", "_lat": 39.6873, "_lng": -86.8973, "sqft": 1072069, "type": "Warehouse", "coverage": "no current requirement (confirmed)", "status": "none", "penalty": 0, "deadline": "", "proc": 0, "dr": 7504, "mon": 7504, "gas": 0, "elec": 0, "q_gas": false, "q_elec": false, "q_dr": true, "util_dir": false, "util_min": null, "utility": "Duke Energy Indiana, LLC, Hendricks County Rural E M C, South Central Indiana REMC", "at_risk": false}, {"id": 210, "address": "410 E Germann Rd", "city": "Gilbert", "state": "AZ", "_lat": 33.3528, "_lng": -111.789, "sqft": 102325, "type": "Warehouse", "coverage": "no current requirement (confirmed)", "status": "none", "penalty": 0, "deadline": "", "proc": 0, "dr": 716, "mon": 716, "gas": 0, "elec": 0, "q_gas": false, "q_elec": false, "q_dr": true, "util_dir": false, "util_min": null, "utility": "Salt River Project", "at_risk": false}, {"id": 211, "address": "2500 Golden Triangle Blvd", "city": "Fort Worth", "state": "TX", "_lat": 32.7555, "_lng": -97.3308, "sqft": 108548, "type": "Warehouse", "coverage": "no current requirement (confirmed)", "status": "none", "penalty": 0, "deadline": "", "proc": 15197, "dr": 760, "mon": 15957, "gas": 0, "elec": 15197, "q_gas": false, "q_elec": true, "q_dr": true, "util_dir": false, "util_min": null, "utility": "Denton County Elec Coop, Inc, Tri-County Electric Coop, Inc", "at_risk": false}, {"id": 212, "address": "14300 Graham St", "city": "Moreno Valley", "state": "CA", "_lat": 33.9425, "_lng": -117.2297, "sqft": 180043, "type": "Warehouse", "coverage": "active law (data ingested)", "status": "fined", "penalty": 6250, "deadline": "", "proc": 0, "dr": 1260, "mon": 1260, "gas": 0, "elec": 0, "q_gas": false, "q_elec": false, "q_dr": true, "util_dir": true, "util_min": 3, "utility": "Southern Cal Gas; Southern California Edison", "at_risk": true}, {"id": 213, "address": "2709 Graham Cracker Dr", "city": "Fort Worth", "state": "TX", "_lat": 32.7555, "_lng": -97.3308, "sqft": 257117, "type": "Warehouse", "coverage": "no current requirement (confirmed)", "status": "none", "penalty": 0, "deadline": "", "proc": 35996, "dr": 1800, "mon": 37796, "gas": 0, "elec": 35996, "q_gas": false, "q_elec": true, "q_dr": true, "util_dir": false, "util_min": null, "utility": "Denton County Elec Coop, Inc, Tri-County Electric Coop, Inc", "at_risk": false}, {"id": 214, "address": "750 Great Southwest Pky SW", "city": "Atlanta", "state": "GA", "_lat": 33.749, "_lng": -84.388, "sqft": 38620, "type": "Warehouse", "coverage": "active law (data ingested)", "status": "fined", "penalty": 750, "deadline": "2026-12-31", "proc": 2317, "dr": 0, "mon": 2317, "gas": 2317, "elec": 0, "q_gas": true, "q_elec": false, "q_dr": false, "util_dir": true, "util_min": 5, "utility": "Georgia Power", "at_risk": true}, {"id": 215, "address": "3025 N Great Southwest Pky", "city": "Grand Prairie", "state": "TX", "_lat": 32.7459, "_lng": -97.0342, "sqft": 64800, "type": "Warehouse", "coverage": "no current requirement (confirmed)", "status": "none", "penalty": 0, "deadline": "", "proc": 9072, "dr": 0, "mon": 9072, "gas": 0, "elec": 9072, "q_gas": false, "q_elec": true, "q_dr": false, "util_dir": false, "util_min": null, "utility": "Oncor Electric Delivery [Energy Future Holdings Corp]", "at_risk": false},